[
  {
    "esr": "0100",
    "status": "1",
    "type": "0",
    "osm_id": "665115765",
    "lat": "61.78421783",
    "lon": "34.34402084",
    "name": "Петрозаводск-Пассажирский",
    "alt_name": "",
    "old_name": "",
    "official_name": "",
    "railway": "station",
    "user": "010002"
  },
  {
    "esr": "0104",
    "status": "1",
    "type": "0",
    "osm_id": "370656",
    "lat": "61.94111252",
    "lon": "34.25039291",
    "name": "Шуйская",
    "alt_name": "",
    "old_name": "",
    "official_name": "",
    "railway": "station",
    "user": "010407"
  },
  {
    "esr": "0104",
    "status": "1",
    "type": "0",
    "osm_id": "1424435426",
    "lat": "62.03767776",
    "lon": "34.21403503",
    "name": "Лучевой",
    "alt_name": "",
    "old_name": "",
    "official_name": "",
    "railway": "station",
    "user": ""
  },
  {
    "esr": "0105",
    "status": "1",
    "type": "0",
    "osm_id": "26919789",
    "lat": "62.11172485",
    "lon": "34.24343872",
    "name": "Суна",
    "alt_name": "",
    "old_name": "",
    "official_name": "",
    "railway": "station",
    "user": "010500"
  },
  {
    "esr": "0105",
    "status": "1",
    "type": "0",
    "osm_id": "26904534",
    "lat": "62.06446457",
    "lon": "34.23099136",
    "name": "437 км",
    "alt_name": "Лучевой-2",
    "old_name": "",
    "official_name": "",
    "railway": "station",
    "user": ""
  },
  {
    "esr": "0107",
    "status": "1",
    "type": "0",
    "osm_id": "26919691",
    "lat": "62.20932007",
    "lon": "34.27616501",
    "name": "Кондопога",
    "alt_name": "",
    "old_name": "",
    "official_name": "",
    "railway": "station",
    "user": "010708"
  },
  {
    "esr": "0107",
    "status": "1",
    "type": "0",
    "osm_id": "26918764",
    "lat": "62.26054764",
    "lon": "34.44886398",
    "name": "Мянсельга",
    "alt_name": "",
    "old_name": "",
    "official_name": "",
    "railway": "station",
    "user": "010727"
  },
  {
    "esr": "0107",
    "status": "1",
    "type": "0",
    "osm_id": "26918733",
    "lat": "62.29930496",
    "lon": "34.51671219",
    "name": "Илемсельга",
    "alt_name": "",
    "old_name": "",
    "official_name": "",
    "railway": "station",
    "user": ""
  },
  {
    "esr": "0108",
    "status": "1",
    "type": "0",
    "osm_id": "26918704",
    "lat": "62.36235428",
    "lon": "34.48793793",
    "name": "Кедрозеро",
    "alt_name": "",
    "old_name": "",
    "official_name": "",
    "railway": "station",
    "user": "010801"
  },
  {
    "esr": "0108",
    "status": "1",
    "type": "0",
    "osm_id": "1424435421",
    "lat": "62.41857147",
    "lon": "34.43115997",
    "name": "Лижма",
    "alt_name": "",
    "old_name": "",
    "official_name": "",
    "railway": "station",
    "user": ""
  },
  {
    "esr": "0109",
    "status": "1",
    "type": "0",
    "osm_id": "244602700",
    "lat": "62.22364426",
    "lon": "34.33430481",
    "name": "Нигозеро",
    "alt_name": "",
    "old_name": "",
    "official_name": "",
    "railway": "station",
    "user": "010905"
  },
  {
    "esr": "0110",
    "status": "1",
    "type": "0",
    "osm_id": "26919441",
    "lat": "62.6740799",
    "lon": "34.26928711",
    "name": "Кяппесельга",
    "alt_name": "",
    "old_name": "",
    "official_name": "",
    "railway": "station",
    "user": "011005"
  },
  {
    "esr": "0111",
    "status": "1",
    "type": "0",
    "osm_id": "1424435449",
    "lat": "62.80158234",
    "lon": "34.45722198",
    "name": "Пергуба",
    "alt_name": "",
    "old_name": "",
    "official_name": "",
    "railway": "station",
    "user": "011109"
  },
  {
    "esr": "0111",
    "status": "1",
    "type": "0",
    "osm_id": "1424435457",
    "lat": "62.853508",
    "lon": "34.43981934",
    "name": "Предмедгорский",
    "alt_name": "",
    "old_name": "",
    "official_name": "",
    "railway": "station",
    "user": ""
  },
  {
    "esr": "0112",
    "status": "1",
    "type": "0",
    "osm_id": "1616657817",
    "lat": "62.83857346",
    "lon": "34.46658325",
    "name": "Прионежская",
    "alt_name": "",
    "old_name": "",
    "official_name": "",
    "railway": "station",
    "user": ""
  },
  {
    "esr": "0113",
    "status": "1",
    "type": "0",
    "osm_id": "26993776",
    "lat": "62.90855408",
    "lon": "34.44932556",
    "name": "Медвежья Гора",
    "alt_name": "",
    "old_name": "",
    "official_name": "",
    "railway": "station",
    "user": "011306"
  },
  {
    "esr": "0114",
    "status": "1",
    "type": "0",
    "osm_id": "1424435385",
    "lat": "62.931633",
    "lon": "34.54558182",
    "name": "Вичка",
    "alt_name": "",
    "old_name": "",
    "official_name": "",
    "railway": "station",
    "user": ""
  },
  {
    "esr": "0114",
    "status": "1",
    "type": "0",
    "osm_id": "1424435438",
    "lat": "63.04858398",
    "lon": "34.43048477",
    "name": "Малыга",
    "alt_name": "",
    "old_name": "",
    "official_name": "",
    "railway": "station",
    "user": "011429"
  },
  {
    "esr": "0115",
    "status": "1",
    "type": "0",
    "osm_id": "1616497596",
    "lat": "62.48950958",
    "lon": "34.35131073",
    "name": "Новый Посёлок",
    "alt_name": "",
    "old_name": "",
    "official_name": "",
    "railway": "station",
    "user": "011503"
  },
  {
    "esr": "0115",
    "status": "1",
    "type": "0",
    "osm_id": "1424435366",
    "lat": "63.22071075",
    "lon": "34.3466568",
    "name": "Быстряги",
    "alt_name": "",
    "old_name": "",
    "official_name": "",
    "railway": "station",
    "user": ""
  },
  {
    "esr": "0115",
    "status": "1",
    "type": "0",
    "osm_id": "2154979338",
    "lat": "63.27685547",
    "lon": "34.31671143",
    "name": "Раменцы",
    "alt_name": "",
    "old_name": "",
    "official_name": "",
    "railway": "station",
    "user": "011522"
  },
  {
    "esr": "0115",
    "status": "1",
    "type": "0",
    "osm_id": "2154838396",
    "lat": "63.34568024",
    "lon": "34.32598495",
    "name": "Сумеричи",
    "alt_name": "",
    "old_name": "",
    "official_name": "",
    "railway": "station",
    "user": ""
  },
  {
    "esr": "0115",
    "status": "1",
    "type": "0",
    "osm_id": "386609",
    "lat": "63.15102386",
    "lon": "34.30173492",
    "name": "Масельская",
    "alt_name": "",
    "old_name": "",
    "official_name": "",
    "railway": "station",
    "user": "011541"
  },
  {
    "esr": "0117",
    "status": "1",
    "type": "0",
    "osm_id": "26870590",
    "lat": "63.52186966",
    "lon": "34.26821136",
    "name": "Суглица",
    "alt_name": "",
    "old_name": "",
    "official_name": "",
    "railway": "station",
    "user": ""
  },
  {
    "esr": "0117",
    "status": "1",
    "type": "0",
    "osm_id": "26870641",
    "lat": "63.4377327",
    "lon": "34.24414444",
    "name": "Уросозеро",
    "alt_name": "",
    "old_name": "",
    "official_name": "",
    "railway": "station",
    "user": "011749"
  },
  {
    "esr": "0118",
    "status": "1",
    "type": "0",
    "osm_id": "4017835695",
    "lat": "63.7442627",
    "lon": "34.3025856",
    "name": "Сегежа",
    "alt_name": "",
    "old_name": "",
    "official_name": "",
    "railway": "station",
    "user": "011804"
  },
  {
    "esr": "0118",
    "status": "1",
    "type": "0",
    "osm_id": "676527941",
    "lat": "63.81563568",
    "lon": "34.25279999",
    "name": "Май-Губа",
    "alt_name": "",
    "old_name": "",
    "official_name": "",
    "railway": "station",
    "user": "011819"
  },
  {
    "esr": "0119",
    "status": "1",
    "type": "0",
    "osm_id": "2102346776",
    "lat": "63.89356613",
    "lon": "34.26830673",
    "name": "Надвоицы",
    "alt_name": "",
    "old_name": "",
    "official_name": "",
    "railway": "station",
    "user": "011908"
  },
  {
    "esr": "0119",
    "status": "1",
    "type": "0",
    "osm_id": "276732361",
    "lat": "63.94480133",
    "lon": "34.23610687",
    "name": "Шавань",
    "alt_name": "",
    "old_name": "",
    "official_name": "",
    "railway": "station",
    "user": "011912"
  },
  {
    "esr": "0120",
    "status": "1",
    "type": "0",
    "osm_id": "1424435410",
    "lat": "64.03502655",
    "lon": "34.24767685",
    "name": "Кочкома",
    "alt_name": "",
    "old_name": "",
    "official_name": "",
    "railway": "station",
    "user": "012008"
  },
  {
    "esr": "0121",
    "status": "1",
    "type": "0",
    "osm_id": "676519826",
    "lat": "64.13703918",
    "lon": "34.2457428",
    "name": "Идель",
    "alt_name": "",
    "old_name": "",
    "official_name": "",
    "railway": "station",
    "user": "012101"
  },
  {
    "esr": "0121",
    "status": "1",
    "type": "0",
    "osm_id": "276733367",
    "lat": "64.22820282",
    "lon": "34.30392838",
    "name": "Тунгуда",
    "alt_name": "",
    "old_name": "",
    "official_name": "",
    "railway": "station",
    "user": "012116"
  },
  {
    "esr": "0122",
    "status": "1",
    "type": "1",
    "osm_id": "206187941",
    "lat": "64.30207825",
    "lon": "34.41853714",
    "name": "Летний",
    "alt_name": "",
    "old_name": "",
    "official_name": "",
    "railway": "station",
    "user": ""
  },
  {
    "esr": "0122",
    "status": "1",
    "type": "0",
    "osm_id": "2002865725",
    "lat": "64.30197906",
    "lon": "34.4192009",
    "name": "Летний",
    "alt_name": "",
    "old_name": "",
    "official_name": "",
    "railway": "station",
    "user": "012205"
  },
  {
    "esr": "0123",
    "status": "1",
    "type": "0",
    "osm_id": "276733626",
    "lat": "64.4311676",
    "lon": "34.46925354",
    "name": "Сосновец",
    "alt_name": "",
    "old_name": "",
    "official_name": "",
    "railway": "station",
    "user": "012309"
  },
  {
    "esr": "0123",
    "status": "1",
    "type": "0",
    "osm_id": "5266612278",
    "lat": "64.49071503",
    "lon": "34.57571411",
    "name": "Уда",
    "alt_name": "",
    "old_name": "",
    "official_name": "",
    "railway": "station",
    "user": "012313"
  },
  {
    "esr": "0123",
    "status": "1",
    "type": "0",
    "osm_id": "676517416",
    "lat": "64.51644135",
    "lon": "34.66435623",
    "name": "Горелый Мост",
    "alt_name": "",
    "old_name": "",
    "official_name": "",
    "railway": "station",
    "user": "012328"
  },
  {
    "esr": "0123",
    "status": "1",
    "type": "0",
    "osm_id": "276635434",
    "lat": "63.85428619",
    "lon": "36.46100235",
    "name": "Маленьга",
    "alt_name": "",
    "old_name": "",
    "official_name": "",
    "railway": "station",
    "user": ""
  },
  {
    "esr": "0125",
    "status": "1",
    "type": "0",
    "osm_id": "1616557186",
    "lat": "63.97019196",
    "lon": "36.1122818",
    "name": "Руйга",
    "alt_name": "",
    "old_name": "",
    "official_name": "",
    "railway": "station",
    "user": "012510"
  },
  {
    "esr": "0125",
    "status": "1",
    "type": "0",
    "osm_id": "276635372",
    "lat": "63.90993118",
    "lon": "36.25744629",
    "name": "Нюхча",
    "alt_name": "",
    "old_name": "",
    "official_name": "",
    "railway": "station",
    "user": "012544"
  },
  {
    "esr": "0126",
    "status": "1",
    "type": "0",
    "osm_id": "276635224",
    "lat": "64.11831665",
    "lon": "35.72761536",
    "name": "Колежма",
    "alt_name": "",
    "old_name": "",
    "official_name": "",
    "railway": "station",
    "user": "012614"
  },
  {
    "esr": "0126",
    "status": "1",
    "type": "0",
    "osm_id": "276635159",
    "lat": "64.19023895",
    "lon": "35.55460358",
    "name": "Тегозеро",
    "alt_name": "",
    "old_name": "",
    "official_name": "",
    "railway": "station",
    "user": "012629"
  },
  {
    "esr": "0126",
    "status": "1",
    "type": "0",
    "osm_id": "276635253",
    "lat": "64.04734039",
    "lon": "35.91553879",
    "name": "Ухтица",
    "alt_name": "",
    "old_name": "",
    "official_name": "",
    "railway": "station",
    "user": "012633"
  },
  {
    "esr": "0127",
    "status": "1",
    "type": "0",
    "osm_id": "276635071",
    "lat": "64.24730682",
    "lon": "35.39116287",
    "name": "Сумский Посад",
    "alt_name": "",
    "old_name": "",
    "official_name": "",
    "railway": "station",
    "user": "012703"
  },
  {
    "esr": "0127",
    "status": "1",
    "type": "0",
    "osm_id": "1425068823",
    "lat": "64.32012939",
    "lon": "35.24569321",
    "name": "Вирма",
    "alt_name": "",
    "old_name": "",
    "official_name": "",
    "railway": "station",
    "user": "012718"
  },
  {
    "esr": "0127",
    "status": "1",
    "type": "0",
    "osm_id": "276634958",
    "lat": "64.39041138",
    "lon": "35.00601959",
    "name": "Сухое",
    "alt_name": "",
    "old_name": "",
    "official_name": "",
    "railway": "station",
    "user": "012722"
  },
  {
    "esr": "0127",
    "status": "1",
    "type": "0",
    "osm_id": "276634883",
    "lat": "64.47144318",
    "lon": "34.78826904",
    "name": "Шижня",
    "alt_name": "",
    "old_name": "",
    "official_name": "",
    "railway": "station",
    "user": "012737"
  },
  {
    "esr": "0127",
    "status": "1",
    "type": "0",
    "osm_id": "2160191219",
    "lat": "64.50848389",
    "lon": "34.72225189",
    "name": "Выг",
    "alt_name": "",
    "old_name": "",
    "official_name": "",
    "railway": "station",
    "user": ""
  },
  {
    "esr": "0130",
    "status": "1",
    "type": "0",
    "osm_id": "1280208197",
    "lat": "64.54123688",
    "lon": "34.77540207",
    "name": "Беломорск",
    "alt_name": "",
    "old_name": "",
    "official_name": "",
    "railway": "station",
    "user": "013000"
  },
  {
    "esr": "0131",
    "status": "1",
    "type": "0",
    "osm_id": "276735030",
    "lat": "64.86296082",
    "lon": "34.6701889",
    "name": "Мягрека",
    "alt_name": "",
    "old_name": "",
    "official_name": "",
    "railway": "station",
    "user": ""
  },
  {
    "esr": "0131",
    "status": "1",
    "type": "0",
    "osm_id": "276734544",
    "lat": "64.73918915",
    "lon": "34.69934082",
    "name": "Шуерецкая",
    "alt_name": "",
    "old_name": "",
    "official_name": "",
    "railway": "station",
    "user": ""
  },
  {
    "esr": "0132",
    "status": "1",
    "type": "0",
    "osm_id": "676518391",
    "lat": "64.95533752",
    "lon": "34.56983185",
    "name": "Кемь",
    "alt_name": "",
    "old_name": "",
    "official_name": "",
    "railway": "station",
    "user": ""
  },
  {
    "esr": "0132",
    "status": "1",
    "type": "0",
    "osm_id": "4333789344",
    "lat": "65.08992767",
    "lon": "34.58300018",
    "name": "Ламбино",
    "alt_name": "",
    "old_name": "",
    "official_name": "",
    "railway": "station",
    "user": ""
  },
  {
    "esr": "0132",
    "status": "1",
    "type": "0",
    "osm_id": "1392155393",
    "lat": "65.24330139",
    "lon": "34.4650383",
    "name": "Поньгома",
    "alt_name": "",
    "old_name": "",
    "official_name": "",
    "railway": "station",
    "user": ""
  },
  {
    "esr": "0132",
    "status": "1",
    "type": "0",
    "osm_id": "1418018383",
    "lat": "64.99028015",
    "lon": "34.78656769",
    "name": "Кемь-Пристань",
    "alt_name": "",
    "old_name": "",
    "official_name": "",
    "railway": "station",
    "user": ""
  },
  {
    "esr": "0135",
    "status": "1",
    "type": "0",
    "osm_id": "276738212",
    "lat": "65.35386658",
    "lon": "34.26403427",
    "name": "Кузема",
    "alt_name": "",
    "old_name": "",
    "official_name": "",
    "railway": "station",
    "user": ""
  },
  {
    "esr": "0135",
    "status": "1",
    "type": "0",
    "osm_id": "1424435462",
    "lat": "65.57349396",
    "lon": "34.20231628",
    "name": "Сиг",
    "alt_name": "",
    "old_name": "",
    "official_name": "",
    "railway": "station",
    "user": ""
  },
  {
    "esr": "0136",
    "status": "1",
    "type": "0",
    "osm_id": "683061225",
    "lat": "65.7900238",
    "lon": "33.9444313",
    "name": "Энгозеро",
    "alt_name": "",
    "old_name": "",
    "official_name": "",
    "railway": "station",
    "user": ""
  },
  {
    "esr": "0137",
    "status": "1",
    "type": "0",
    "osm_id": "276756095",
    "lat": "65.89768982",
    "lon": "33.70964432",
    "name": "Амбарный",
    "alt_name": "",
    "old_name": "",
    "official_name": "",
    "railway": "station",
    "user": ""
  },
  {
    "esr": "0137",
    "status": "1",
    "type": "0",
    "osm_id": "276756570",
    "lat": "65.96250153",
    "lon": "33.35416794",
    "name": "Боярская",
    "alt_name": "",
    "old_name": "",
    "official_name": "",
    "railway": "station",
    "user": ""
  },
  {
    "esr": "0138",
    "status": "1",
    "type": "0",
    "osm_id": "276757167",
    "lat": "66.07538605",
    "lon": "33.05914307",
    "name": "Лоухи",
    "alt_name": "",
    "old_name": "",
    "official_name": "",
    "railway": "station",
    "user": ""
  },
  {
    "esr": "0138",
    "status": "1",
    "type": "0",
    "osm_id": "276758030",
    "lat": "66.19783783",
    "lon": "32.90111923",
    "name": "Кереть",
    "alt_name": "",
    "old_name": "",
    "official_name": "",
    "railway": "station",
    "user": ""
  },
  {
    "esr": "0139",
    "status": "1",
    "type": "0",
    "osm_id": "1616681527",
    "lat": "66.0042572",
    "lon": "32.38169479",
    "name": "Еловая",
    "alt_name": "",
    "old_name": "",
    "official_name": "",
    "railway": "station",
    "user": ""
  },
  {
    "esr": "0140",
    "status": "1",
    "type": "0",
    "osm_id": "1616681535",
    "lat": "65.89790344",
    "lon": "31.83423615",
    "name": "Кестеньга",
    "alt_name": "",
    "old_name": "",
    "official_name": "",
    "railway": "station",
    "user": ""
  },
  {
    "esr": "0143",
    "status": "1",
    "type": "0",
    "osm_id": "276758443",
    "lat": "66.26634979",
    "lon": "32.9666748",
    "name": "Чупа",
    "alt_name": "",
    "old_name": "",
    "official_name": "",
    "railway": "station",
    "user": ""
  },
  {
    "esr": "0143",
    "status": "1",
    "type": "0",
    "osm_id": "276759738",
    "lat": "66.43583679",
    "lon": "32.85043716",
    "name": "Полярный Круг",
    "alt_name": "",
    "old_name": "",
    "official_name": "",
    "railway": "station",
    "user": ""
  },
  {
    "esr": "0143",
    "status": "1",
    "type": "0",
    "osm_id": "4866950040",
    "lat": "66.58660126",
    "lon": "32.80942154",
    "name": "Пояконда",
    "alt_name": "",
    "old_name": "",
    "official_name": "",
    "railway": "station",
    "user": ""
  },
  {
    "esr": "0143",
    "status": "1",
    "type": "0",
    "osm_id": "937887891",
    "lat": "66.71188354",
    "lon": "32.63928986",
    "name": "Ковда",
    "alt_name": "",
    "old_name": "",
    "official_name": "",
    "railway": "station",
    "user": ""
  },
  {
    "esr": "0144",
    "status": "1",
    "type": "0",
    "osm_id": "683205028",
    "lat": "66.81972504",
    "lon": "32.35462952",
    "name": "Княжая",
    "alt_name": "",
    "old_name": "",
    "official_name": "",
    "railway": "station",
    "user": ""
  },
  {
    "esr": "0144",
    "status": "1",
    "type": "0",
    "osm_id": "276764262",
    "lat": "67.00610352",
    "lon": "32.19226074",
    "name": "Ручьи-Карельские",
    "alt_name": "",
    "old_name": "",
    "official_name": "",
    "railway": "station",
    "user": ""
  },
  {
    "esr": "0146",
    "status": "1",
    "type": "0",
    "osm_id": "611407070",
    "lat": "66.96253204",
    "lon": "31.45383835",
    "name": "Ням-Озеро",
    "alt_name": "",
    "old_name": "",
    "official_name": "",
    "railway": "station",
    "user": ""
  },
  {
    "esr": "0147",
    "status": "1",
    "type": "0",
    "osm_id": "1041162860",
    "lat": "66.96334076",
    "lon": "30.34160614",
    "name": "Алакуртти",
    "alt_name": "",
    "old_name": "",
    "official_name": "",
    "railway": "station",
    "user": "014709"
  },
  {
    "esr": "0148",
    "status": "1",
    "type": "0",
    "osm_id": "276765074",
    "lat": "67.08101654",
    "lon": "32.26623154",
    "name": "Белое Море",
    "alt_name": "",
    "old_name": "",
    "official_name": "",
    "railway": "station",
    "user": ""
  },
  {
    "esr": "0148",
    "status": "1",
    "type": "0",
    "osm_id": "276765907",
    "lat": "67.14674377",
    "lon": "32.27391052",
    "name": "Проливы",
    "alt_name": "",
    "old_name": "",
    "official_name": "",
    "railway": "station",
    "user": ""
  },
  {
    "esr": "0149",
    "status": "1",
    "type": "0",
    "osm_id": "1652244511",
    "lat": "67.16020966",
    "lon": "32.41910172",
    "name": "Кандалакша",
    "alt_name": "",
    "old_name": "",
    "official_name": "",
    "railway": "station",
    "user": ""
  },
  {
    "esr": "0151",
    "status": "1",
    "type": "0",
    "osm_id": "276767255",
    "lat": "67.31718445",
    "lon": "32.49833679",
    "name": "Пинозеро",
    "alt_name": "",
    "old_name": "",
    "official_name": "",
    "railway": "station",
    "user": ""
  },
  {
    "esr": "0151",
    "status": "1",
    "type": "0",
    "osm_id": "632002408",
    "lat": "67.49334717",
    "lon": "31.90638351",
    "name": "Уполокша",
    "alt_name": "",
    "old_name": "",
    "official_name": "",
    "railway": "station",
    "user": ""
  },
  {
    "esr": "0152",
    "status": "1",
    "type": "0",
    "osm_id": "1616846887",
    "lat": "67.5812912",
    "lon": "31.1423893",
    "name": "Ёна",
    "alt_name": "",
    "old_name": "",
    "official_name": "",
    "railway": "station",
    "user": ""
  },
  {
    "esr": "0154",
    "status": "1",
    "type": "0",
    "osm_id": "1245464207",
    "lat": "67.54933167",
    "lon": "30.48161125",
    "name": "Ковдор",
    "alt_name": "",
    "old_name": "",
    "official_name": "",
    "railway": "station",
    "user": ""
  },
  {
    "esr": "0155",
    "status": "1",
    "type": "0",
    "osm_id": "935558807",
    "lat": "67.3732605",
    "lon": "32.48715973",
    "name": "Полярные Зори",
    "alt_name": "",
    "old_name": "",
    "official_name": "",
    "railway": "station",
    "user": ""
  },
  {
    "esr": "0156",
    "status": "1",
    "type": "0",
    "osm_id": "276768726",
    "lat": "67.44267273",
    "lon": "32.77815628",
    "name": "Африканда",
    "alt_name": "",
    "old_name": "",
    "official_name": "",
    "railway": "station",
    "user": ""
  },
  {
    "esr": "0156",
    "status": "1",
    "type": "0",
    "osm_id": "3416154016",
    "lat": "67.6016922",
    "lon": "33.37147903",
    "name": "1268 км",
    "alt_name": "",
    "old_name": "",
    "official_name": "",
    "railway": "station",
    "user": ""
  },
  {
    "esr": "0157",
    "status": "1",
    "type": "0",
    "osm_id": "4780924546",
    "lat": "67.38118744",
    "lon": "32.54050064",
    "name": "Нива",
    "alt_name": "",
    "old_name": "",
    "official_name": "",
    "railway": "station",
    "user": ""
  },
  {
    "esr": "0158",
    "status": "1",
    "type": "0",
    "osm_id": "944690549",
    "lat": "67.56137848",
    "lon": "33.62499237",
    "name": "Титан",
    "alt_name": "",
    "old_name": "",
    "official_name": "",
    "railway": "station",
    "user": ""
  },
  {
    "esr": "0160",
    "status": "1",
    "type": "0",
    "osm_id": "1194364378",
    "lat": "67.59225464",
    "lon": "33.42045975",
    "name": "Апатиты-2",
    "alt_name": "",
    "old_name": "",
    "official_name": "",
    "railway": "station",
    "user": "016009"
  },
  {
    "esr": "0161",
    "status": "1",
    "type": "0",
    "osm_id": "937914065",
    "lat": "67.67337799",
    "lon": "33.21194839",
    "name": "Хибины",
    "alt_name": "",
    "old_name": "",
    "official_name": "",
    "railway": "station",
    "user": ""
  },
  {
    "esr": "0161",
    "status": "1",
    "type": "0",
    "osm_id": "937914067",
    "lat": "67.76690674",
    "lon": "33.18967056",
    "name": "Нефелиновые Пески",
    "alt_name": "",
    "old_name": "",
    "official_name": "",
    "railway": "station",
    "user": ""
  },
  {
    "esr": "0161",
    "status": "1",
    "type": "0",
    "osm_id": "937914133",
    "lat": "67.8522644",
    "lon": "33.25865173",
    "name": "Имандра",
    "alt_name": "",
    "old_name": "",
    "official_name": "",
    "railway": "station",
    "user": ""
  },
  {
    "esr": "0162",
    "status": "1",
    "type": "0",
    "osm_id": "937914258",
    "lat": "67.99667358",
    "lon": "33.39471054",
    "name": "Куна",
    "alt_name": "",
    "old_name": "",
    "official_name": "",
    "railway": "station",
    "user": ""
  },
  {
    "esr": "0162",
    "status": "1",
    "type": "0",
    "osm_id": "267213737",
    "lat": "68.04699707",
    "lon": "33.36455536",
    "name": "Ягельный Бор",
    "alt_name": "",
    "old_name": "",
    "official_name": "",
    "railway": "station",
    "user": ""
  },
  {
    "esr": "0163",
    "status": "1",
    "type": "0",
    "osm_id": "2001649838",
    "lat": "68.13611603",
    "lon": "33.31286621",
    "name": "Оленегорск",
    "alt_name": "",
    "old_name": "",
    "official_name": "",
    "railway": "station",
    "user": ""
  },
  {
    "esr": "0164",
    "status": "1",
    "type": "0",
    "osm_id": "606432976",
    "lat": "67.95163727",
    "lon": "32.87471008",
    "name": "Мончегорск",
    "alt_name": "",
    "old_name": "",
    "official_name": "",
    "railway": "station",
    "user": ""
  },
  {
    "esr": "0166",
    "status": "1",
    "type": "0",
    "osm_id": "4017600975",
    "lat": "68.27259827",
    "lon": "33.32600403",
    "name": "Лапландия",
    "alt_name": "",
    "old_name": "",
    "official_name": "",
    "railway": "station",
    "user": ""
  },
  {
    "esr": "0166",
    "status": "1",
    "type": "0",
    "osm_id": "3958071135",
    "lat": "68.35838318",
    "lon": "33.29750824",
    "name": "Пулозеро",
    "alt_name": "",
    "old_name": "",
    "official_name": "",
    "railway": "station",
    "user": ""
  },
  {
    "esr": "0167",
    "status": "1",
    "type": "0",
    "osm_id": "4004534893",
    "lat": "68.43496704",
    "lon": "33.34758759",
    "name": "Тайбола",
    "alt_name": "",
    "old_name": "",
    "official_name": "",
    "railway": "station",
    "user": ""
  },
  {
    "esr": "0167",
    "status": "1",
    "type": "0",
    "osm_id": "985859056",
    "lat": "68.51278687",
    "lon": "33.18435287",
    "name": "Кица",
    "alt_name": "",
    "old_name": "",
    "official_name": "",
    "railway": "station",
    "user": ""
  },
  {
    "esr": "0168",
    "status": "1",
    "type": "0",
    "osm_id": "985070598",
    "lat": "68.67992401",
    "lon": "33.12649155",
    "name": "Магнетиты",
    "alt_name": "",
    "old_name": "",
    "official_name": "",
    "railway": "station",
    "user": ""
  },
  {
    "esr": "0169",
    "status": "1",
    "type": "0",
    "osm_id": "75363675",
    "lat": "68.83666992",
    "lon": "33.08206558",
    "name": "Выходной",
    "alt_name": "",
    "old_name": "",
    "official_name": "",
    "railway": "station",
    "user": ""
  },
  {
    "esr": "0170",
    "status": "1",
    "type": "0",
    "osm_id": "1031873979",
    "lat": "68.88895416",
    "lon": "33.05109406",
    "name": "Кола",
    "alt_name": "",
    "old_name": "",
    "official_name": "",
    "railway": "station",
    "user": ""
  },
  {
    "esr": "0171",
    "status": "1",
    "type": "0",
    "osm_id": "1039278192",
    "lat": "68.81996155",
    "lon": "32.81899261",
    "name": "Мурмаши",
    "alt_name": "",
    "old_name": "",
    "official_name": "",
    "railway": "station",
    "user": ""
  },
  {
    "esr": "0173",
    "status": "1",
    "type": "0",
    "osm_id": "1097177723",
    "lat": "68.96930695",
    "lon": "32.45386505",
    "name": "Пяйве",
    "alt_name": "",
    "old_name": "",
    "official_name": "",
    "railway": "station",
    "user": ""
  },
  {
    "esr": "0174",
    "status": "1",
    "type": "0",
    "osm_id": "1526835572",
    "lat": "69.18934631",
    "lon": "31.69349289",
    "name": "Моккет",
    "alt_name": "",
    "old_name": "",
    "official_name": "",
    "railway": "station",
    "user": ""
  },
  {
    "esr": "0174",
    "status": "1",
    "type": "0",
    "osm_id": "1028841151",
    "lat": "69.26817322",
    "lon": "31.24523163",
    "name": "Титовка",
    "alt_name": "",
    "old_name": "",
    "official_name": "",
    "railway": "station",
    "user": ""
  },
  {
    "esr": "0174",
    "status": "1",
    "type": "0",
    "osm_id": "5398693912",
    "lat": "69.07830048",
    "lon": "32.1231842",
    "name": "Нял",
    "alt_name": "",
    "old_name": "",
    "official_name": "",
    "railway": "station",
    "user": ""
  },
  {
    "esr": "0179",
    "status": "1",
    "type": "0",
    "osm_id": "1526888125",
    "lat": "69.39984894",
    "lon": "31.10557938",
    "name": "Луостари",
    "alt_name": "",
    "old_name": "",
    "official_name": "",
    "railway": "station",
    "user": ""
  },
  {
    "esr": "0180",
    "status": "1",
    "type": "0",
    "osm_id": "991555540",
    "lat": "69.50941467",
    "lon": "31.16312027",
    "name": "Печенга",
    "alt_name": "",
    "old_name": "",
    "official_name": "",
    "railway": "station",
    "user": ""
  },
  {
    "esr": "0181",
    "status": "1",
    "type": "0",
    "osm_id": "1358244380",
    "lat": "69.4080658",
    "lon": "30.79452324",
    "name": "Заполярная",
    "alt_name": "",
    "old_name": "",
    "official_name": "",
    "railway": "station",
    "user": ""
  },
  {
    "esr": "0182",
    "status": "1",
    "type": "0",
    "osm_id": "2847857804",
    "lat": "69.42014313",
    "lon": "30.25650215",
    "name": "Никель-Мурманский",
    "alt_name": "",
    "old_name": "",
    "official_name": "",
    "railway": "station",
    "user": ""
  },
  {
    "esr": "0184",
    "status": "1",
    "type": "0",
    "osm_id": "75362899",
    "lat": "68.97197723",
    "lon": "33.06923676",
    "name": "Мурманск",
    "alt_name": "",
    "old_name": "",
    "official_name": "",
    "railway": "station",
    "user": ""
  },
  {
    "esr": "0184",
    "status": "1",
    "type": "0",
    "osm_id": "1614148331",
    "lat": "67.33569336",
    "lon": "32.43885422",
    "name": "4 км",
    "alt_name": "",
    "old_name": "",
    "official_name": "",
    "railway": "station",
    "user": ""
  },
  {
    "esr": "0186",
    "status": "1",
    "type": "0",
    "osm_id": "75364418",
    "lat": "69.01953125",
    "lon": "33.09741592",
    "name": "Комсомольск-Мурманский",
    "alt_name": "",
    "old_name": "",
    "official_name": "",
    "railway": "station",
    "user": ""
  },
  {
    "esr": "0190",
    "status": "1",
    "type": "0",
    "osm_id": "614604255",
    "lat": "69.05487061",
    "lon": "33.37707901",
    "name": "Ваенга",
    "alt_name": "",
    "old_name": "",
    "official_name": "",
    "railway": "station",
    "user": ""
  },
  {
    "esr": "0200",
    "status": "1",
    "type": "1",
    "osm_id": "79251090",
    "lat": "60.71540451",
    "lon": "28.75128365",
    "name": "Выборг",
    "alt_name": "",
    "old_name": "",
    "official_name": "",
    "railway": "station",
    "user": ""
  },
  {
    "esr": "0200",
    "status": "1",
    "type": "0",
    "osm_id": "224845097",
    "lat": "60.79943466",
    "lon": "28.95701408",
    "name": "Гвардейское",
    "alt_name": "",
    "old_name": "",
    "official_name": "",
    "railway": "station",
    "user": ""
  },
  {
    "esr": "0202",
    "status": "1",
    "type": "0",
    "osm_id": "356057963",
    "lat": "60.36928177",
    "lon": "28.77465439",
    "name": "Ермилово",
    "alt_name": "",
    "old_name": "Humaljoki",
    "official_name": "",
    "railway": "station",
    "user": ""
  },
  {
    "esr": "0203",
    "status": "1",
    "type": "0",
    "osm_id": "148094220",
    "lat": "60.36494446",
    "lon": "28.63041496",
    "name": "Приморск",
    "alt_name": "",
    "old_name": "Koivisto",
    "official_name": "",
    "railway": "station",
    "user": ""
  },
  {
    "esr": "0203",
    "status": "1",
    "type": "0",
    "osm_id": "1264749334",
    "lat": "59.46469498",
    "lon": "33.81903076",
    "name": "Бор",
    "alt_name": "",
    "old_name": "",
    "official_name": "",
    "railway": "station",
    "user": ""
  },
  {
    "esr": "0204",
    "status": "1",
    "type": "0",
    "osm_id": "66312593",
    "lat": "60.45264816",
    "lon": "28.71518898",
    "name": "Прибылово",
    "alt_name": "",
    "old_name": "",
    "official_name": "",
    "railway": "station",
    "user": ""
  },
  {
    "esr": "0205",
    "status": "1",
    "type": "0",
    "osm_id": "65005973",
    "lat": "60.5284729",
    "lon": "28.68998528",
    "name": "Советский",
    "alt_name": "",
    "old_name": "",
    "official_name": "",
    "railway": "station",
    "user": ""
  },
  {
    "esr": "0205",
    "status": "1",
    "type": "0",
    "osm_id": "2012627811",
    "lat": "60.58276367",
    "lon": "28.71356392",
    "name": "Попово",
    "alt_name": "",
    "old_name": "",
    "official_name": "",
    "railway": "station",
    "user": "020517"
  },
  {
    "esr": "0208",
    "status": "1",
    "type": "0",
    "osm_id": "389882455",
    "lat": "60.46751404",
    "lon": "29.2853241",
    "name": "Кирилловское",
    "alt_name": "",
    "old_name": "",
    "official_name": "",
    "railway": "station",
    "user": ""
  },
  {
    "esr": "0209",
    "status": "1",
    "type": "0",
    "osm_id": "5744733817",
    "lat": "60.5910759",
    "lon": "29.04432487",
    "name": "Гаврилово",
    "alt_name": "",
    "old_name": "",
    "official_name": "",
    "railway": "station",
    "user": ""
  },
  {
    "esr": "0210",
    "status": "1",
    "type": "0",
    "osm_id": "2014636356",
    "lat": "60.73241043",
    "lon": "28.80474472",
    "name": "Таммисуо",
    "alt_name": "",
    "old_name": "",
    "official_name": "",
    "railway": "station",
    "user": "021007"
  },
  {
    "esr": "0212",
    "status": "1",
    "type": "0",
    "osm_id": "5748017918",
    "lat": "60.66047668",
    "lon": "28.88162994",
    "name": "Верхне-Черкасово",
    "alt_name": "",
    "old_name": "Säiniö",
    "official_name": "",
    "railway": "station",
    "user": "021204"
  },
  {
    "esr": "0213",
    "status": "1",
    "type": "0",
    "osm_id": "1327565008",
    "lat": "60.80580902",
    "lon": "28.47799492",
    "name": "Лужайка",
    "alt_name": "",
    "old_name": "",
    "official_name": "",
    "railway": "station",
    "user": ""
  },
  {
    "esr": "0215",
    "status": "1",
    "type": "0",
    "osm_id": "293905407",
    "lat": "60.75217056",
    "lon": "28.65019035",
    "name": "Пригородная",
    "alt_name": "",
    "old_name": "",
    "official_name": "",
    "railway": "station",
    "user": ""
  },
  {
    "esr": "0216",
    "status": "1",
    "type": "0",
    "osm_id": "245429669",
    "lat": "60.85910416",
    "lon": "28.94745636",
    "name": "Возрождение",
    "alt_name": "",
    "old_name": "",
    "official_name": "",
    "railway": "station",
    "user": ""
  },
  {
    "esr": "0216",
    "status": "1",
    "type": "0",
    "osm_id": "245429690",
    "lat": "60.91872406",
    "lon": "28.97169113",
    "name": "Ханнила",
    "alt_name": "",
    "old_name": "Hannila",
    "official_name": "",
    "railway": "station",
    "user": ""
  },
  {
    "esr": "0217",
    "status": "1",
    "type": "0",
    "osm_id": "245428839",
    "lat": "60.96201324",
    "lon": "29.10778427",
    "name": "Каменногорск",
    "alt_name": "",
    "old_name": "Antrea",
    "official_name": "",
    "railway": "station",
    "user": ""
  },
  {
    "esr": "0218",
    "status": "1",
    "type": "0",
    "osm_id": "280430227",
    "lat": "61.11769485",
    "lon": "28.84592247",
    "name": "Светогорск",
    "alt_name": "",
    "old_name": "Enso",
    "official_name": "",
    "railway": "station",
    "user": ""
  },
  {
    "esr": "0220",
    "status": "1",
    "type": "0",
    "osm_id": "282252238",
    "lat": "61.04912567",
    "lon": "28.92511559",
    "name": "Лесогорский",
    "alt_name": "",
    "old_name": "",
    "official_name": "",
    "railway": "station",
    "user": ""
  },
  {
    "esr": "0221",
    "status": "1",
    "type": "0",
    "osm_id": "282252386",
    "lat": "61.01279068",
    "lon": "29.03367805",
    "name": "Пруды",
    "alt_name": "",
    "old_name": "",
    "official_name": "",
    "railway": "station",
    "user": ""
  },
  {
    "esr": "0221",
    "status": "2",
    "type": "0",
    "osm_id": "5532820444",
    "lat": "60.99104691",
    "lon": "29.09818649",
    "name": "5 км",
    "alt_name": "",
    "old_name": "",
    "official_name": "",
    "railway": "station",
    "user": ""
  },
  {
    "esr": "0222",
    "status": "1",
    "type": "0",
    "osm_id": "2523342334",
    "lat": "60.98297882",
    "lon": "29.32106972",
    "name": "Красный сокол",
    "alt_name": "",
    "old_name": "Сысоевская",
    "official_name": "",
    "railway": "station",
    "user": ""
  },
  {
    "esr": "0223",
    "status": "1",
    "type": "0",
    "osm_id": "245427906",
    "lat": "61.01885223",
    "lon": "29.41553497",
    "name": "Бородинское",
    "alt_name": "",
    "old_name": "",
    "official_name": "",
    "railway": "station",
    "user": ""
  },
  {
    "esr": "0223",
    "status": "1",
    "type": "0",
    "osm_id": "245427483",
    "lat": "61.14522171",
    "lon": "29.56908989",
    "name": "Ояярви",
    "alt_name": "",
    "old_name": "",
    "official_name": "",
    "railway": "station",
    "user": ""
  },
  {
    "esr": "0224",
    "status": "1",
    "type": "0",
    "osm_id": "1327881343",
    "lat": "61.23546982",
    "lon": "29.68801308",
    "name": "Хийтола",
    "alt_name": "",
    "old_name": "",
    "official_name": "",
    "railway": "station",
    "user": ""
  },
  {
    "esr": "0225",
    "status": "1",
    "type": "0",
    "osm_id": "279636631",
    "lat": "60.9618187",
    "lon": "29.24505997",
    "name": "Боровинка",
    "alt_name": "",
    "old_name": "",
    "official_name": "",
    "railway": "station",
    "user": "022508"
  },
  {
    "esr": "0226",
    "status": "1",
    "type": "0",
    "osm_id": "442723847",
    "lat": "60.63162994",
    "lon": "30.11410522",
    "name": "Петяярви",
    "alt_name": "",
    "old_name": "",
    "official_name": "",
    "railway": "station",
    "user": ""
  },
  {
    "esr": "0226",
    "status": "1",
    "type": "0",
    "osm_id": "2341199442",
    "lat": "60.66570282",
    "lon": "30.03590012",
    "name": "Лосево-1",
    "alt_name": "",
    "old_name": "",
    "official_name": "",
    "railway": "station",
    "user": "022654"
  },
  {
    "esr": "0227",
    "status": "1",
    "type": "0",
    "osm_id": "722089743",
    "lat": "60.72538376",
    "lon": "30.07369995",
    "name": "Громово",
    "alt_name": "",
    "old_name": "",
    "official_name": "",
    "railway": "station",
    "user": ""
  },
  {
    "esr": "0228",
    "status": "1",
    "type": "0",
    "osm_id": "371090708",
    "lat": "60.82555008",
    "lon": "30.12943649",
    "name": "Отрадное",
    "alt_name": "",
    "old_name": "",
    "official_name": "",
    "railway": "station",
    "user": ""
  },
  {
    "esr": "0229",
    "status": "1",
    "type": "0",
    "osm_id": "245419167",
    "lat": "60.90768051",
    "lon": "30.08011818",
    "name": "Мюллюпельто",
    "alt_name": "",
    "old_name": "",
    "official_name": "",
    "railway": "station",
    "user": ""
  },
  {
    "esr": "0230",
    "status": "1",
    "type": "0",
    "osm_id": "2012486876",
    "lat": "61.0358696",
    "lon": "30.10265541",
    "name": "Приозерск",
    "alt_name": "",
    "old_name": "",
    "official_name": "",
    "railway": "station",
    "user": ""
  },
  {
    "esr": "0231",
    "status": "1",
    "type": "0",
    "osm_id": "1794933346",
    "lat": "61.1129837",
    "lon": "29.87501335",
    "name": "Кузнечное",
    "alt_name": "",
    "old_name": "",
    "official_name": "",
    "railway": "station",
    "user": ""
  },
  {
    "esr": "0232",
    "status": "1",
    "type": "0",
    "osm_id": "1984072626",
    "lat": "61.41174316",
    "lon": "29.76267242",
    "name": "Элисенваара",
    "alt_name": "",
    "old_name": "",
    "official_name": "",
    "railway": "station",
    "user": ""
  },
  {
    "esr": "0232",
    "status": "1",
    "type": "0",
    "osm_id": "1327881338",
    "lat": "61.4962883",
    "lon": "30.00316048",
    "name": "Ихала",
    "alt_name": "",
    "old_name": "",
    "official_name": "",
    "railway": "station",
    "user": ""
  },
  {
    "esr": "0236",
    "status": "1",
    "type": "0",
    "osm_id": "1668871268",
    "lat": "61.51639557",
    "lon": "30.13069916",
    "name": "Яккима",
    "alt_name": "",
    "old_name": "",
    "official_name": "",
    "railway": "station",
    "user": ""
  },
  {
    "esr": "0236",
    "status": "1",
    "type": "0",
    "osm_id": "245423978",
    "lat": "61.65366364",
    "lon": "30.38651085",
    "name": "Куокканиеми",
    "alt_name": "",
    "old_name": "",
    "official_name": "",
    "railway": "station",
    "user": "023642"
  },
  {
    "esr": "0237",
    "status": "1",
    "type": "0",
    "osm_id": "1014538008",
    "lat": "61.69486618",
    "lon": "30.67415619",
    "name": "Сортавала",
    "alt_name": "",
    "old_name": "",
    "official_name": "",
    "railway": "station",
    "user": ""
  },
  {
    "esr": "0238",
    "status": "1",
    "type": "0",
    "osm_id": "1639038907",
    "lat": "61.74412918",
    "lon": "30.66908836",
    "name": "Хелюля",
    "alt_name": "",
    "old_name": "",
    "official_name": "",
    "railway": "station",
    "user": ""
  },
  {
    "esr": "0239",
    "status": "1",
    "type": "0",
    "osm_id": "364533468",
    "lat": "61.89759445",
    "lon": "30.50111198",
    "name": "Кааламо",
    "alt_name": "",
    "old_name": "",
    "official_name": "",
    "railway": "station",
    "user": ""
  },
  {
    "esr": "0239",
    "status": "1",
    "type": "1",
    "osm_id": "495279321",
    "lat": "61.89781189",
    "lon": "30.50152016",
    "name": "Кааламо",
    "alt_name": "",
    "old_name": "",
    "official_name": "",
    "railway": "station",
    "user": ""
  },
  {
    "esr": "0240",
    "status": "1",
    "type": "0",
    "osm_id": "2002893280",
    "lat": "61.96720886",
    "lon": "30.53634071",
    "name": "Маткаселькя",
    "alt_name": "",
    "old_name": "",
    "official_name": "",
    "railway": "station",
    "user": ""
  },
  {
    "esr": "0241",
    "status": "1",
    "type": "0",
    "osm_id": "1581017421",
    "lat": "62.16742706",
    "lon": "30.64453506",
    "name": "Вяртсиля",
    "alt_name": "",
    "old_name": "",
    "official_name": "",
    "railway": "station",
    "user": ""
  },
  {
    "esr": "0244",
    "status": "1",
    "type": "1",
    "osm_id": "220031721",
    "lat": "60.9882431",
    "lon": "32.96352386",
    "name": "Олонец",
    "alt_name": "",
    "old_name": "",
    "official_name": "",
    "railway": "station",
    "user": ""
  },
  {
    "esr": "0245",
    "status": "1",
    "type": "0",
    "osm_id": "1620387848",
    "lat": "61.01942444",
    "lon": "32.70232773",
    "name": "Ильинская",
    "alt_name": "",
    "old_name": "",
    "official_name": "",
    "railway": "station",
    "user": ""
  },
  {
    "esr": "0246",
    "status": "1",
    "type": "0",
    "osm_id": "611260390",
    "lat": "61.18410873",
    "lon": "32.38723373",
    "name": "Видлица",
    "alt_name": "",
    "old_name": "",
    "official_name": "",
    "railway": "station",
    "user": ""
  },
  {
    "esr": "0247",
    "status": "1",
    "type": "0",
    "osm_id": "1203813399",
    "lat": "61.37395859",
    "lon": "31.84132195",
    "name": "Салми",
    "alt_name": "",
    "old_name": "",
    "official_name": "",
    "railway": "station",
    "user": ""
  },
  {
    "esr": "0248",
    "status": "1",
    "type": "0",
    "osm_id": "1014545711",
    "lat": "61.57395554",
    "lon": "31.46224594",
    "name": "Питкяранта",
    "alt_name": "",
    "old_name": "",
    "official_name": "",
    "railway": "station",
    "user": ""
  },
  {
    "esr": "0249",
    "status": "1",
    "type": "0",
    "osm_id": "1620290156",
    "lat": "61.68035889",
    "lon": "31.26125336",
    "name": "Леппясилта",
    "alt_name": "",
    "old_name": "",
    "official_name": "",
    "railway": "station",
    "user": ""
  },
  {
    "esr": "0250",
    "status": "1",
    "type": "0",
    "osm_id": "1620290157",
    "lat": "61.76086807",
    "lon": "30.98915291",
    "name": "Ляскеля",
    "alt_name": "",
    "old_name": "",
    "official_name": "",
    "railway": "station",
    "user": ""
  },
  {
    "esr": "0251",
    "status": "1",
    "type": "0",
    "osm_id": "611332405",
    "lat": "61.81689835",
    "lon": "30.9324379",
    "name": "Харлу",
    "alt_name": "",
    "old_name": "",
    "official_name": "",
    "railway": "station",
    "user": ""
  },
  {
    "esr": "0251",
    "status": "1",
    "type": "0",
    "osm_id": "611332756",
    "lat": "61.89081573",
    "lon": "30.94853973",
    "name": "Янисъярви",
    "alt_name": "",
    "old_name": "",
    "official_name": "",
    "railway": "station",
    "user": ""
  },
  {
    "esr": "0253",
    "status": "1",
    "type": "0",
    "osm_id": "1424435483",
    "lat": "61.87885666",
    "lon": "34.0803833",
    "name": "Чална-Онежская",
    "alt_name": "",
    "old_name": "",
    "official_name": "",
    "railway": "station",
    "user": ""
  },
  {
    "esr": "0253",
    "status": "1",
    "type": "0",
    "osm_id": "1424435447",
    "lat": "61.86515808",
    "lon": "33.91877747",
    "name": "Падозеро",
    "alt_name": "",
    "old_name": "",
    "official_name": "",
    "railway": "station",
    "user": ""
  },
  {
    "esr": "0254",
    "status": "1",
    "type": "0",
    "osm_id": "929910145",
    "lat": "61.86733246",
    "lon": "33.54511261",
    "name": "Кутижма",
    "alt_name": "",
    "old_name": "",
    "official_name": "",
    "railway": "station",
    "user": ""
  },
  {
    "esr": "0254",
    "status": "1",
    "type": "0",
    "osm_id": "1424435471",
    "lat": "61.86965561",
    "lon": "33.32872009",
    "name": "Сяньга",
    "alt_name": "",
    "old_name": "",
    "official_name": "",
    "railway": "station",
    "user": ""
  },
  {
    "esr": "0254",
    "status": "1",
    "type": "0",
    "osm_id": "1424435381",
    "lat": "61.88874817",
    "lon": "33.71372223",
    "name": "Виллагора",
    "alt_name": "",
    "old_name": "",
    "official_name": "",
    "railway": "station",
    "user": ""
  },
  {
    "esr": "0255",
    "status": "1",
    "type": "0",
    "osm_id": "611260477",
    "lat": "61.84404755",
    "lon": "33.2142601",
    "name": "Эссойла",
    "alt_name": "",
    "old_name": "",
    "official_name": "",
    "railway": "station",
    "user": ""
  },
  {
    "esr": "0256",
    "status": "1",
    "type": "0",
    "osm_id": "928097036",
    "lat": "61.84601212",
    "lon": "33.08821106",
    "name": "Иматозеро",
    "alt_name": "",
    "old_name": "",
    "official_name": "",
    "railway": "station",
    "user": ""
  },
  {
    "esr": "0257",
    "status": "1",
    "type": "0",
    "osm_id": "928096350",
    "lat": "61.83363724",
    "lon": "32.94192886",
    "name": "Новые Пески",
    "alt_name": "",
    "old_name": "",
    "official_name": "",
    "railway": "station",
    "user": ""
  },
  {
    "esr": "0257",
    "status": "1",
    "type": "0",
    "osm_id": "1424435407",
    "lat": "61.89246368",
    "lon": "32.77173233",
    "name": "Застава",
    "alt_name": "",
    "old_name": "",
    "official_name": "",
    "railway": "station",
    "user": ""
  },
  {
    "esr": "0257",
    "status": "1",
    "type": "0",
    "osm_id": "1620174733",
    "lat": "61.98836899",
    "lon": "32.63645554",
    "name": "Хаутаваара",
    "alt_name": "",
    "old_name": "",
    "official_name": "",
    "railway": "station",
    "user": ""
  },
  {
    "esr": "0257",
    "status": "1",
    "type": "0",
    "osm_id": "1620174713",
    "lat": "62.03251266",
    "lon": "32.46890259",
    "name": "Веркко",
    "alt_name": "",
    "old_name": "",
    "official_name": "",
    "railway": "station",
    "user": ""
  },
  {
    "esr": "0258",
    "status": "1",
    "type": "0",
    "osm_id": "1089067757",
    "lat": "62.08264923",
    "lon": "32.34137726",
    "name": "Суоярви 1",
    "alt_name": "Суоярви I",
    "old_name": "",
    "official_name": "",
    "railway": "station",
    "user": ""
  },
  {
    "esr": "0259",
    "status": "1",
    "type": "0",
    "osm_id": "1621269941",
    "lat": "62.03103256",
    "lon": "32.09954071",
    "name": "Пийтсиеки",
    "alt_name": "",
    "old_name": "",
    "official_name": "",
    "railway": "station",
    "user": ""
  },
  {
    "esr": "0260",
    "status": "1",
    "type": "0",
    "osm_id": "1620174720",
    "lat": "61.97844696",
    "lon": "31.74126625",
    "name": "Лоймола",
    "alt_name": "",
    "old_name": "",
    "official_name": "",
    "railway": "station",
    "user": ""
  },
  {
    "esr": "0261",
    "status": "1",
    "type": "0",
    "osm_id": "1620174730",
    "lat": "61.92154694",
    "lon": "31.54498672",
    "name": "Райконкоски",
    "alt_name": "",
    "old_name": "",
    "official_name": "",
    "railway": "station",
    "user": ""
  },
  {
    "esr": "0262",
    "status": "1",
    "type": "0",
    "osm_id": "1620083629",
    "lat": "61.86998749",
    "lon": "31.3336792",
    "name": "Леппясюрья",
    "alt_name": "",
    "old_name": "",
    "official_name": "",
    "railway": "station",
    "user": ""
  },
  {
    "esr": "0263",
    "status": "1",
    "type": "0",
    "osm_id": "1616818819",
    "lat": "62.10169601",
    "lon": "32.3717804",
    "name": "Суоярви 2",
    "alt_name": "Суоярви II",
    "old_name": "",
    "official_name": "",
    "railway": "station",
    "user": ""
  },
  {
    "esr": "0263",
    "status": "1",
    "type": "0",
    "osm_id": "1616818825",
    "lat": "62.18627548",
    "lon": "32.53730392",
    "name": "Суоёки",
    "alt_name": "Суойоки",
    "old_name": "",
    "official_name": "",
    "railway": "station",
    "user": ""
  },
  {
    "esr": "0264",
    "status": "1",
    "type": "0",
    "osm_id": "1616818792",
    "lat": "62.27471924",
    "lon": "32.6803093",
    "name": "Найстенъярви",
    "alt_name": "",
    "old_name": "",
    "official_name": "",
    "railway": "station",
    "user": ""
  },
  {
    "esr": "0265",
    "status": "1",
    "type": "0",
    "osm_id": "1616818787",
    "lat": "62.43387604",
    "lon": "32.6466217",
    "name": "Лахколамен",
    "alt_name": "",
    "old_name": "",
    "official_name": "",
    "railway": "station",
    "user": ""
  },
  {
    "esr": "0266",
    "status": "1",
    "type": "0",
    "osm_id": "611333387",
    "lat": "62.55928802",
    "lon": "32.70319366",
    "name": "Тумасозеро",
    "alt_name": "",
    "old_name": "",
    "official_name": "",
    "railway": "station",
    "user": ""
  },
  {
    "esr": "0267",
    "status": "1",
    "type": "0",
    "osm_id": "2173417115",
    "lat": "62.69779205",
    "lon": "32.69054413",
    "name": "Поросозеро",
    "alt_name": "",
    "old_name": "",
    "official_name": "",
    "railway": "station",
    "user": ""
  },
  {
    "esr": "0268",
    "status": "1",
    "type": "0",
    "osm_id": "1195215710",
    "lat": "62.74165344",
    "lon": "32.6944313",
    "name": "Аконъярви",
    "alt_name": "",
    "old_name": "",
    "official_name": "",
    "railway": "station",
    "user": ""
  },
  {
    "esr": "0269",
    "status": "1",
    "type": "0",
    "osm_id": "611333069",
    "lat": "63.11216736",
    "lon": "32.31671906",
    "name": "Руголамби",
    "alt_name": "",
    "old_name": "",
    "official_name": "",
    "railway": "station",
    "user": ""
  },
  {
    "esr": "0269",
    "status": "1",
    "type": "0",
    "osm_id": "813333982",
    "lat": "62.93309784",
    "lon": "32.50718689",
    "name": "Гимольская",
    "alt_name": "",
    "old_name": "",
    "official_name": "",
    "railway": "station",
    "user": ""
  },
  {
    "esr": "0270",
    "status": "1",
    "type": "0",
    "osm_id": "2173512427",
    "lat": "63.17312622",
    "lon": "32.31879807",
    "name": "Суккозеро",
    "alt_name": "",
    "old_name": "",
    "official_name": "",
    "railway": "station",
    "user": ""
  },
  {
    "esr": "0270",
    "status": "1",
    "type": "0",
    "osm_id": "813327927",
    "lat": "63.22771454",
    "lon": "32.29603958",
    "name": "Брусничная",
    "alt_name": "",
    "old_name": "",
    "official_name": "",
    "railway": "station",
    "user": ""
  },
  {
    "esr": "0270",
    "status": "1",
    "type": "0",
    "osm_id": "611333568",
    "lat": "63.33171844",
    "lon": "32.20315552",
    "name": "Кангас",
    "alt_name": "",
    "old_name": "",
    "official_name": "",
    "railway": "station",
    "user": ""
  },
  {
    "esr": "0271",
    "status": "2",
    "type": "0",
    "osm_id": "611373050",
    "lat": "63.24513245",
    "lon": "32.06145096",
    "name": "Суун",
    "alt_name": "",
    "old_name": "",
    "official_name": "",
    "railway": "station",
    "user": ""
  },
  {
    "esr": "0271",
    "status": "2",
    "type": "0",
    "osm_id": "611373050",
    "lat": "63.24513245",
    "lon": "32.06145096",
    "name": "Суун",
    "alt_name": "",
    "old_name": "",
    "official_name": "",
    "railway": "station",
    "user": ""
  },
  {
    "esr": "0273",
    "status": "1",
    "type": "0",
    "osm_id": "1620487495",
    "lat": "63.3939743",
    "lon": "31.26740646",
    "name": "Лендеры",
    "alt_name": "",
    "old_name": "",
    "official_name": "",
    "railway": "station",
    "user": ""
  },
  {
    "esr": "0274",
    "status": "1",
    "type": "0",
    "osm_id": "1616706226",
    "lat": "63.53363037",
    "lon": "32.07840729",
    "name": "Пенинга",
    "alt_name": "",
    "old_name": "",
    "official_name": "",
    "railway": "station",
    "user": ""
  },
  {
    "esr": "0275",
    "status": "1",
    "type": "0",
    "osm_id": "611333700",
    "lat": "63.74185562",
    "lon": "31.94895172",
    "name": "Сонозеро",
    "alt_name": "",
    "old_name": "",
    "official_name": "",
    "railway": "station",
    "user": ""
  },
  {
    "esr": "0275",
    "status": "1",
    "type": "0",
    "osm_id": "611333762",
    "lat": "63.86580276",
    "lon": "32.00455856",
    "name": "Сельга",
    "alt_name": "",
    "old_name": "",
    "official_name": "",
    "railway": "station",
    "user": ""
  },
  {
    "esr": "0276",
    "status": "1",
    "type": "0",
    "osm_id": "1616692032",
    "lat": "63.96305466",
    "lon": "31.9876442",
    "name": "Муезерка",
    "alt_name": "",
    "old_name": "",
    "official_name": "",
    "railway": "station",
    "user": ""
  },
  {
    "esr": "0277",
    "status": "1",
    "type": "0",
    "osm_id": "676573249",
    "lat": "64.25883484",
    "lon": "32.04092407",
    "name": "Ледмозеро",
    "alt_name": "Ледмозеро I",
    "old_name": "",
    "official_name": "",
    "railway": "station",
    "user": ""
  },
  {
    "esr": "0277",
    "status": "1",
    "type": "0",
    "osm_id": "611356473",
    "lat": "64.27519226",
    "lon": "32.01784897",
    "name": "Ледмозеро 2",
    "alt_name": "Ледмозеро II",
    "old_name": "",
    "official_name": "",
    "railway": "station",
    "user": ""
  },
  {
    "esr": "0277",
    "status": "1",
    "type": "0",
    "osm_id": "1621454802",
    "lat": "64.0982666",
    "lon": "33.05553818",
    "name": "Пертозеро",
    "alt_name": "",
    "old_name": "",
    "official_name": "",
    "railway": "station",
    "user": ""
  },
  {
    "esr": "0278",
    "status": "1",
    "type": "0",
    "osm_id": "1161746598",
    "lat": "64.63208771",
    "lon": "30.789114",
    "name": "Костомукша-Товарная",
    "alt_name": "",
    "old_name": "",
    "official_name": "",
    "railway": "station",
    "user": ""
  },
  {
    "esr": "0279",
    "status": "1",
    "type": "0",
    "osm_id": "2098802121",
    "lat": "64.6085434",
    "lon": "30.60303879",
    "name": "Костомукша-Пассажирская",
    "alt_name": "",
    "old_name": "",
    "official_name": "",
    "railway": "station",
    "user": ""
  },
  {
    "esr": "0280",
    "status": "1",
    "type": "0",
    "osm_id": "1616683162",
    "lat": "64.54916382",
    "lon": "30.06021881",
    "name": "Кивиярви",
    "alt_name": "",
    "old_name": "",
    "official_name": "",
    "railway": "station",
    "user": ""
  },
  {
    "esr": "0283",
    "status": "1",
    "type": "0",
    "osm_id": "611334076",
    "lat": "64.61392975",
    "lon": "32.22669601",
    "name": "Боровая",
    "alt_name": "",
    "old_name": "",
    "official_name": "",
    "railway": "station",
    "user": ""
  },
  {
    "esr": "0284",
    "status": "1",
    "type": "0",
    "osm_id": "1610325761",
    "lat": "64.77043152",
    "lon": "32.23126221",
    "name": "Юшкозеро",
    "alt_name": "",
    "old_name": "",
    "official_name": "",
    "railway": "station",
    "user": "028400"
  },
  {
    "esr": "0285",
    "status": "1",
    "type": "0",
    "osm_id": "354041965",
    "lat": "60.84064484",
    "lon": "28.37717056",
    "name": "Бусловская",
    "alt_name": "",
    "old_name": "",
    "official_name": "",
    "railway": "station",
    "user": ""
  },
  {
    "esr": "0300",
    "status": "1",
    "type": "0",
    "osm_id": "4288702580",
    "lat": "59.87548828",
    "lon": "30.41586113",
    "name": "Санкт-Петербург-Сортировочный-Московский",
    "alt_name": "",
    "old_name": "",
    "official_name": "",
    "railway": "station",
    "user": "030006"
  },
  {
    "esr": "0301",
    "status": "1",
    "type": "0",
    "osm_id": "456707237",
    "lat": "59.85531616",
    "lon": "31.01329231",
    "name": "Невдубстрой",
    "alt_name": "",
    "old_name": "",
    "official_name": "",
    "railway": "station",
    "user": ""
  },
  {
    "esr": "0302",
    "status": "1",
    "type": "0",
    "osm_id": "2434723648",
    "lat": "59.7554245",
    "lon": "31.0616188",
    "name": "Мга",
    "alt_name": "",
    "old_name": "",
    "official_name": "",
    "railway": "station",
    "user": "030203"
  },
  {
    "esr": "0302",
    "status": "1",
    "type": "0",
    "osm_id": "423135577",
    "lat": "59.76773453",
    "lon": "30.94540405",
    "name": "Горы",
    "alt_name": "",
    "old_name": "",
    "official_name": "",
    "railway": "station",
    "user": ""
  },
  {
    "esr": "0302",
    "status": "1",
    "type": "0",
    "osm_id": "1252496483",
    "lat": "59.71977997",
    "lon": "30.95279884",
    "name": "Войтоловка",
    "alt_name": "",
    "old_name": "",
    "official_name": "",
    "railway": "station",
    "user": ""
  },
  {
    "esr": "0304",
    "status": "1",
    "type": "0",
    "osm_id": "423135580",
    "lat": "59.79174805",
    "lon": "30.88054276",
    "name": "Павлово на Неве",
    "alt_name": "",
    "old_name": "",
    "official_name": "",
    "railway": "station",
    "user": ""
  },
  {
    "esr": "0305",
    "status": "1",
    "type": "0",
    "osm_id": "423135585",
    "lat": "59.8546524",
    "lon": "30.73117447",
    "name": "Манушкино",
    "alt_name": "",
    "old_name": "",
    "official_name": "",
    "railway": "station",
    "user": ""
  },
  {
    "esr": "0305",
    "status": "2",
    "type": "0",
    "osm_id": "5532820444",
    "lat": "60.99104691",
    "lon": "29.09818649",
    "name": "5 км",
    "alt_name": "",
    "old_name": "",
    "official_name": "",
    "railway": "station",
    "user": ""
  },
  {
    "esr": "0306",
    "status": "1",
    "type": "0",
    "osm_id": "423135576",
    "lat": "59.76917267",
    "lon": "30.83277321",
    "name": "Пелла",
    "alt_name": "",
    "old_name": "",
    "official_name": "",
    "railway": "station",
    "user": ""
  },
  {
    "esr": "0308",
    "status": "1",
    "type": "0",
    "osm_id": "2469801483",
    "lat": "59.80784225",
    "lon": "30.56275368",
    "name": "Ижоры",
    "alt_name": "",
    "old_name": "",
    "official_name": "",
    "railway": "station",
    "user": "030805"
  },
  {
    "esr": "0309",
    "status": "1",
    "type": "0",
    "osm_id": "2111802825",
    "lat": "59.83127213",
    "lon": "30.50115585",
    "name": "Рыбацкое",
    "alt_name": "",
    "old_name": "",
    "official_name": "",
    "railway": "station",
    "user": ""
  },
  {
    "esr": "0312",
    "status": "1",
    "type": "0",
    "osm_id": "2011157458",
    "lat": "59.47885895",
    "lon": "31.00763893",
    "name": "Ушаки",
    "alt_name": "",
    "old_name": "",
    "official_name": "",
    "railway": "station",
    "user": "031206"
  },
  {
    "esr": "0312",
    "status": "1",
    "type": "0",
    "osm_id": "1224639476",
    "lat": "59.5600853",
    "lon": "30.90431976",
    "name": "Зареченская",
    "alt_name": "",
    "old_name": "",
    "official_name": "",
    "railway": "station",
    "user": ""
  },
  {
    "esr": "0313",
    "status": "1",
    "type": "0",
    "osm_id": "266687908",
    "lat": "59.54452896",
    "lon": "30.88191414",
    "name": "Тосно",
    "alt_name": "",
    "old_name": "",
    "official_name": "",
    "railway": "station",
    "user": "031302"
  },
  {
    "esr": "0313",
    "status": "1",
    "type": "0",
    "osm_id": "5673073319",
    "lat": "59.63528442",
    "lon": "30.75711441",
    "name": "Саблино",
    "alt_name": "",
    "old_name": "",
    "official_name": "",
    "railway": "station",
    "user": "031333"
  },
  {
    "esr": "0316",
    "status": "1",
    "type": "0",
    "osm_id": "2011157190",
    "lat": "59.7497673",
    "lon": "30.61452866",
    "name": "Колпино",
    "alt_name": "",
    "old_name": "",
    "official_name": "",
    "railway": "station",
    "user": "031600"
  },
  {
    "esr": "0316",
    "status": "1",
    "type": "0",
    "osm_id": "2012751855",
    "lat": "59.80727386",
    "lon": "30.51259422",
    "name": "Славянка",
    "alt_name": "",
    "old_name": "",
    "official_name": "",
    "railway": "station",
    "user": "031634"
  },
  {
    "esr": "0318",
    "status": "1",
    "type": "0",
    "osm_id": "2417778283",
    "lat": "59.89348602",
    "lon": "30.39275551",
    "name": "Санкт-Петербург-Товарный-Московский",
    "alt_name": "",
    "old_name": "",
    "official_name": "",
    "railway": "station",
    "user": "031808"
  },
  {
    "esr": "0318",
    "status": "1",
    "type": "0",
    "osm_id": "21596808",
    "lat": "59.92693329",
    "lon": "30.3631134",
    "name": "Санкт-Петербург-Главный",
    "alt_name": "",
    "old_name": "",
    "official_name": "Санкт-Петербург-Главный",
    "railway": "station",
    "user": "031812"
  },
  {
    "esr": "0321",
    "status": "1",
    "type": "0",
    "osm_id": "1224650644",
    "lat": "59.66036987",
    "lon": "30.84266281",
    "name": "Пустынька",
    "alt_name": "",
    "old_name": "",
    "official_name": "",
    "railway": "station",
    "user": ""
  },
  {
    "esr": "0321",
    "status": "1",
    "type": "0",
    "osm_id": "1871762722",
    "lat": "59.58024979",
    "lon": "30.6554985",
    "name": "Стекольный",
    "alt_name": "",
    "old_name": "",
    "official_name": "",
    "railway": "station",
    "user": ""
  },
  {
    "esr": "0323",
    "status": "1",
    "type": "0",
    "osm_id": "6125937108",
    "lat": "59.57577896",
    "lon": "30.5457859",
    "name": "Новолисино",
    "alt_name": "",
    "old_name": "",
    "official_name": "",
    "railway": "station",
    "user": ""
  },
  {
    "esr": "0323",
    "status": "1",
    "type": "0",
    "osm_id": "417668112",
    "lat": "59.5737915",
    "lon": "30.367033",
    "name": "Владимирская",
    "alt_name": "",
    "old_name": "",
    "official_name": "",
    "railway": "station",
    "user": ""
  },
  {
    "esr": "0323",
    "status": "1",
    "type": "0",
    "osm_id": "344093926",
    "lat": "59.58842468",
    "lon": "30.38982391",
    "name": "Кобралово",
    "alt_name": "",
    "old_name": "",
    "official_name": "",
    "railway": "station",
    "user": ""
  },
  {
    "esr": "0324",
    "status": "1",
    "type": "1",
    "osm_id": "126213520",
    "lat": "59.64133835",
    "lon": "30.4265461",
    "name": "Антропшино",
    "alt_name": "",
    "old_name": "",
    "official_name": "",
    "railway": "station",
    "user": ""
  },
  {
    "esr": "0325",
    "status": "1",
    "type": "0",
    "osm_id": "4138001513",
    "lat": "59.69356537",
    "lon": "30.43280983",
    "name": "Павловск",
    "alt_name": "",
    "old_name": "",
    "official_name": "",
    "railway": "station",
    "user": ""
  },
  {
    "esr": "0327",
    "status": "1",
    "type": "0",
    "osm_id": "27024681",
    "lat": "59.72303009",
    "lon": "30.42969322",
    "name": "Царское Село",
    "alt_name": "",
    "old_name": "Детское Село",
    "official_name": "",
    "railway": "station",
    "user": "032707"
  },
  {
    "esr": "0330",
    "status": "1",
    "type": "0",
    "osm_id": "1377619868",
    "lat": "59.80579758",
    "lon": "30.3884697",
    "name": "Шушары",
    "alt_name": "",
    "old_name": "",
    "official_name": "",
    "railway": "station",
    "user": ""
  },
  {
    "esr": "0330",
    "status": "1",
    "type": "0",
    "osm_id": "21683296",
    "lat": "59.91881561",
    "lon": "30.33071518",
    "name": "Санкт-Петербург - Витебский",
    "alt_name": "",
    "old_name": "",
    "official_name": "",
    "railway": "station",
    "user": "033061"
  },
  {
    "esr": "0331",
    "status": "1",
    "type": "0",
    "osm_id": "1002512043",
    "lat": "59.82572174",
    "lon": "30.41971016",
    "name": "Купчинская",
    "alt_name": "",
    "old_name": "",
    "official_name": "",
    "railway": "station",
    "user": ""
  },
  {
    "esr": "0334",
    "status": "1",
    "type": "1",
    "osm_id": "75734497",
    "lat": "59.89571762",
    "lon": "30.36119843",
    "name": "Волковская",
    "alt_name": "",
    "old_name": "",
    "official_name": "",
    "railway": "station",
    "user": ""
  },
  {
    "esr": "0334",
    "status": "1",
    "type": "0",
    "osm_id": "22325156",
    "lat": "59.90903854",
    "lon": "30.38748932",
    "name": "Глухоозёрская",
    "alt_name": "",
    "old_name": "",
    "official_name": "",
    "railway": "station",
    "user": ""
  },
  {
    "esr": "0335",
    "status": "1",
    "type": "0",
    "osm_id": "5880742208",
    "lat": "59.88674164",
    "lon": "30.34693527",
    "name": "Санкт-Петербург-Товарный-Витебский",
    "alt_name": "",
    "old_name": "",
    "official_name": "",
    "railway": "station",
    "user": "033502"
  },
  {
    "esr": "0340",
    "status": "1",
    "type": "0",
    "osm_id": "417645572",
    "lat": "59.54434586",
    "lon": "30.1028614",
    "name": "Гатчина-Товарная-Балтийская",
    "alt_name": "Гатчина-Балтийская-Товарная",
    "old_name": "",
    "official_name": "",
    "railway": "station",
    "user": "034007"
  },
  {
    "esr": "0340",
    "status": "1",
    "type": "0",
    "osm_id": "2014636340",
    "lat": "59.55346298",
    "lon": "30.13345528",
    "name": "Гатчина-Варшавская",
    "alt_name": "",
    "old_name": "",
    "official_name": "",
    "railway": "station",
    "user": ""
  },
  {
    "esr": "0341",
    "status": "1",
    "type": "0",
    "osm_id": "2014636336",
    "lat": "59.55916595",
    "lon": "30.10370827",
    "name": "Гатчина-Балтийская Пассажирская",
    "alt_name": "",
    "old_name": "",
    "official_name": "",
    "railway": "station",
    "user": "034100"
  },
  {
    "esr": "0341",
    "status": "1",
    "type": "0",
    "osm_id": "2011157342",
    "lat": "59.606987",
    "lon": "30.08187103",
    "name": "Пудость",
    "alt_name": "",
    "old_name": "",
    "official_name": "",
    "railway": "station",
    "user": ""
  },
  {
    "esr": "0342",
    "status": "1",
    "type": "0",
    "osm_id": "958287304",
    "lat": "59.66430283",
    "lon": "30.10308647",
    "name": "Тайцы",
    "alt_name": "",
    "old_name": "",
    "official_name": "",
    "railway": "station",
    "user": ""
  },
  {
    "esr": "0343",
    "status": "1",
    "type": "0",
    "osm_id": "958287299",
    "lat": "59.73111725",
    "lon": "30.10413742",
    "name": "Красное Село",
    "alt_name": "",
    "old_name": "",
    "official_name": "",
    "railway": "station",
    "user": ""
  },
  {
    "esr": "0344",
    "status": "1",
    "type": "0",
    "osm_id": "3774659757",
    "lat": "59.77910995",
    "lon": "30.12553787",
    "name": "Горелово",
    "alt_name": "",
    "old_name": "",
    "official_name": "",
    "railway": "station",
    "user": ""
  },
  {
    "esr": "0345",
    "status": "1",
    "type": "0",
    "osm_id": "2011157246",
    "lat": "59.82328415",
    "lon": "30.18082428",
    "name": "Лигово",
    "alt_name": "",
    "old_name": "",
    "official_name": "",
    "railway": "station",
    "user": ""
  },
  {
    "esr": "0347",
    "status": "1",
    "type": "0",
    "osm_id": "417632948",
    "lat": "59.64507675",
    "lon": "30.22052383",
    "name": "Верево",
    "alt_name": "",
    "old_name": "",
    "official_name": "",
    "railway": "station",
    "user": ""
  },
  {
    "esr": "0348",
    "status": "1",
    "type": "0",
    "osm_id": "2001886556",
    "lat": "59.73113632",
    "lon": "30.33872795",
    "name": "Александровская",
    "alt_name": "",
    "old_name": "",
    "official_name": "",
    "railway": "station",
    "user": ""
  },
  {
    "esr": "0348",
    "status": "1",
    "type": "0",
    "osm_id": "6003574578",
    "lat": "59.80804825",
    "lon": "30.3327446",
    "name": "Шоссейная",
    "alt_name": "",
    "old_name": "",
    "official_name": "",
    "railway": "station",
    "user": ""
  },
  {
    "esr": "0349",
    "status": "1",
    "type": "0",
    "osm_id": "1002512045",
    "lat": "59.81674957",
    "lon": "30.35677147",
    "name": "Среднерогатская",
    "alt_name": "",
    "old_name": "",
    "official_name": "",
    "railway": "station",
    "user": ""
  },
  {
    "esr": "0350",
    "status": "1",
    "type": "0",
    "osm_id": "183810934",
    "lat": "59.83269501",
    "lon": "30.29033089",
    "name": "Предпортовая",
    "alt_name": "",
    "old_name": "",
    "official_name": "",
    "railway": "station",
    "user": "035004"
  },
  {
    "esr": "0352",
    "status": "1",
    "type": "1",
    "osm_id": "104670338",
    "lat": "59.88713837",
    "lon": "30.33426857",
    "name": "Цветочная",
    "alt_name": "",
    "old_name": "",
    "official_name": "",
    "railway": "station",
    "user": ""
  },
  {
    "esr": "0353",
    "status": "1",
    "type": "1",
    "osm_id": "190168057",
    "lat": "59.87520218",
    "lon": "30.29199982",
    "name": "Броневая",
    "alt_name": "",
    "old_name": "",
    "official_name": "",
    "railway": "station",
    "user": ""
  },
  {
    "esr": "0355",
    "status": "1",
    "type": "0",
    "osm_id": "1002512063",
    "lat": "59.86455154",
    "lon": "30.25034142",
    "name": "Автово",
    "alt_name": "",
    "old_name": "",
    "official_name": "",
    "railway": "station",
    "user": ""
  },
  {
    "esr": "0357",
    "status": "1",
    "type": "0",
    "osm_id": "1002549286",
    "lat": "59.87170792",
    "lon": "30.28147125",
    "name": "Нарвская",
    "alt_name": "",
    "old_name": "",
    "official_name": "",
    "railway": "station",
    "user": ""
  },
  {
    "esr": "0357",
    "status": "1",
    "type": "0",
    "osm_id": "1002742122",
    "lat": "59.88273621",
    "lon": "30.30496216",
    "name": "Корпусный пост",
    "alt_name": "",
    "old_name": "",
    "official_name": "",
    "railway": "station",
    "user": ""
  },
  {
    "esr": "0358",
    "status": "1",
    "type": "0",
    "osm_id": "395306323",
    "lat": "59.90930176",
    "lon": "30.2374897",
    "name": "Новый порт",
    "alt_name": "",
    "old_name": "",
    "official_name": "",
    "railway": "station",
    "user": ""
  },
  {
    "esr": "0360",
    "status": "1",
    "type": "0",
    "osm_id": "2434852978",
    "lat": "59.90493011",
    "lon": "30.29866219",
    "name": "Санкт-Петербург - Балтийский",
    "alt_name": "",
    "old_name": "",
    "official_name": "",
    "railway": "station",
    "user": "036002"
  },
  {
    "esr": "0361",
    "status": "1",
    "type": "0",
    "osm_id": "274960681",
    "lat": "60.01948547",
    "lon": "30.68089485",
    "name": "Мельничный Ручей",
    "alt_name": "",
    "old_name": "",
    "official_name": "",
    "railway": "station",
    "user": ""
  },
  {
    "esr": "0363",
    "status": "1",
    "type": "0",
    "osm_id": "243073737",
    "lat": "60.09685898",
    "lon": "30.96507645",
    "name": "Борисова Грива",
    "alt_name": "",
    "old_name": "",
    "official_name": "",
    "railway": "station",
    "user": ""
  },
  {
    "esr": "0363",
    "status": "1",
    "type": "1",
    "osm_id": "149275156",
    "lat": "60.12630081",
    "lon": "31.06606483",
    "name": "Ладожское озеро",
    "alt_name": "",
    "old_name": "",
    "official_name": "",
    "railway": "station",
    "user": ""
  },
  {
    "esr": "0364",
    "status": "1",
    "type": "0",
    "osm_id": "506809519",
    "lat": "60.0072937",
    "lon": "30.79801559",
    "name": "Кирпичный завод",
    "alt_name": "",
    "old_name": "",
    "official_name": "",
    "railway": "station",
    "user": ""
  },
  {
    "esr": "0365",
    "status": "1",
    "type": "0",
    "osm_id": "639204013",
    "lat": "59.96090698",
    "lon": "31.02812386",
    "name": "Петрокрепость",
    "alt_name": "",
    "old_name": "",
    "official_name": "",
    "railway": "station",
    "user": ""
  },
  {
    "esr": "0366",
    "status": "1",
    "type": "1",
    "osm_id": "168387475",
    "lat": "59.84258652",
    "lon": "30.92946434",
    "name": "Невская Дубровка",
    "alt_name": "",
    "old_name": "",
    "official_name": "",
    "railway": "station",
    "user": ""
  },
  {
    "esr": "0368",
    "status": "1",
    "type": "0",
    "osm_id": "3940791607",
    "lat": "59.88920975",
    "lon": "30.495327",
    "name": "Нева",
    "alt_name": "",
    "old_name": "",
    "official_name": "",
    "railway": "station",
    "user": ""
  },
  {
    "esr": "0369",
    "status": "1",
    "type": "0",
    "osm_id": "1003589182",
    "lat": "59.93943405",
    "lon": "30.5063858",
    "name": "Заневский Пост",
    "alt_name": "",
    "old_name": "",
    "official_name": "",
    "railway": "station",
    "user": ""
  },
  {
    "esr": "0370",
    "status": "1",
    "type": "0",
    "osm_id": "1913149506",
    "lat": "59.9808197",
    "lon": "30.51580238",
    "name": "Ржевка",
    "alt_name": "",
    "old_name": "",
    "official_name": "",
    "railway": "station",
    "user": ""
  },
  {
    "esr": "0370",
    "status": "1",
    "type": "0",
    "osm_id": "308149",
    "lat": "59.98817062",
    "lon": "30.42484856",
    "name": "Пискарёвка",
    "alt_name": "",
    "old_name": "",
    "official_name": "",
    "railway": "station",
    "user": ""
  },
  {
    "esr": "0370",
    "status": "2",
    "type": "0",
    "osm_id": "5532820444",
    "lat": "60.99104691",
    "lon": "29.09818649",
    "name": "5 км",
    "alt_name": "",
    "old_name": "",
    "official_name": "",
    "railway": "station",
    "user": ""
  },
  {
    "esr": "0371",
    "status": "1",
    "type": "0",
    "osm_id": "265301052",
    "lat": "59.93053436",
    "lon": "30.43969536",
    "name": "Санкт-Петербург - Ладожский",
    "alt_name": "Дача Долгорукова",
    "old_name": "",
    "official_name": "",
    "railway": "station",
    "user": "037109"
  },
  {
    "esr": "0373",
    "status": "1",
    "type": "1",
    "osm_id": "337186687",
    "lat": "59.96720123",
    "lon": "30.44504738",
    "name": "Полюстрово",
    "alt_name": "",
    "old_name": "",
    "official_name": "",
    "railway": "station",
    "user": ""
  },
  {
    "esr": "0374",
    "status": "1",
    "type": "0",
    "osm_id": "308112",
    "lat": "59.99040985",
    "lon": "30.35296249",
    "name": "Кушелевка",
    "alt_name": "",
    "old_name": "",
    "official_name": "",
    "railway": "station",
    "user": ""
  },
  {
    "esr": "0375",
    "status": "1",
    "type": "0",
    "osm_id": "898998717",
    "lat": "60.54763412",
    "lon": "30.21653175",
    "name": "Сосново",
    "alt_name": "",
    "old_name": "",
    "official_name": "",
    "railway": "station",
    "user": ""
  },
  {
    "esr": "0375",
    "status": "1",
    "type": "0",
    "osm_id": "357076698",
    "lat": "60.37108612",
    "lon": "30.3711319",
    "name": "Васкелово",
    "alt_name": "",
    "old_name": "",
    "official_name": "",
    "railway": "station",
    "user": ""
  },
  {
    "esr": "0376",
    "status": "1",
    "type": "0",
    "osm_id": "357076696",
    "lat": "60.31753922",
    "lon": "30.43078041",
    "name": "Грузино",
    "alt_name": "",
    "old_name": "",
    "official_name": "",
    "railway": "station",
    "user": ""
  },
  {
    "esr": "0377",
    "status": "1",
    "type": "0",
    "osm_id": "357076694",
    "lat": "60.24718475",
    "lon": "30.46402359",
    "name": "Пери",
    "alt_name": "",
    "old_name": "",
    "official_name": "",
    "railway": "station",
    "user": ""
  },
  {
    "esr": "0378",
    "status": "1",
    "type": "0",
    "osm_id": "27478928",
    "lat": "60.4644165",
    "lon": "30.26106453",
    "name": "Орехово",
    "alt_name": "",
    "old_name": "",
    "official_name": "",
    "railway": "station",
    "user": ""
  },
  {
    "esr": "0379",
    "status": "1",
    "type": "0",
    "osm_id": "1583075831",
    "lat": "60.14942169",
    "lon": "30.50897026",
    "name": "Токсово",
    "alt_name": "",
    "old_name": "",
    "official_name": "",
    "railway": "station",
    "user": ""
  },
  {
    "esr": "0380",
    "status": "1",
    "type": "0",
    "osm_id": "357076692",
    "lat": "60.09450531",
    "lon": "30.47204399",
    "name": "Капитолово",
    "alt_name": "",
    "old_name": "",
    "official_name": "",
    "railway": "station",
    "user": ""
  },
  {
    "esr": "0380",
    "status": "1",
    "type": "0",
    "osm_id": "25717718",
    "lat": "60.05054855",
    "lon": "30.44238091",
    "name": "Девяткино",
    "alt_name": "",
    "old_name": "",
    "official_name": "",
    "railway": "station",
    "user": ""
  },
  {
    "esr": "0382",
    "status": "1",
    "type": "0",
    "osm_id": "7535181",
    "lat": "59.95818329",
    "lon": "30.3581562",
    "name": "Санкт-Петербург - Финляндский",
    "alt_name": "Финляндский вокзал",
    "old_name": "",
    "official_name": "",
    "railway": "station",
    "user": "038205"
  },
  {
    "esr": "0382",
    "status": "1",
    "type": "0",
    "osm_id": "5741053260",
    "lat": "59.99496078",
    "lon": "30.32758141",
    "name": "Ланская",
    "alt_name": "",
    "old_name": "",
    "official_name": "",
    "railway": "station",
    "user": ""
  },
  {
    "esr": "0385",
    "status": "1",
    "type": "0",
    "osm_id": "4965103290",
    "lat": "60.04681396",
    "lon": "30.29748344",
    "name": "Шувалово",
    "alt_name": "",
    "old_name": "",
    "official_name": "",
    "railway": "station",
    "user": ""
  },
  {
    "esr": "0385",
    "status": "1",
    "type": "0",
    "osm_id": "5748040614",
    "lat": "60.08118439",
    "lon": "30.25859642",
    "name": "Парголово",
    "alt_name": "",
    "old_name": "",
    "official_name": "",
    "railway": "station",
    "user": "038510"
  },
  {
    "esr": "0388",
    "status": "1",
    "type": "0",
    "osm_id": "25532584",
    "lat": "60.10431671",
    "lon": "30.21862221",
    "name": "Левашово",
    "alt_name": "",
    "old_name": "",
    "official_name": "",
    "railway": "station",
    "user": ""
  },
  {
    "esr": "0389",
    "status": "1",
    "type": "0",
    "osm_id": "2012751838",
    "lat": "59.99176788",
    "lon": "30.29681015",
    "name": "Новая Деревня",
    "alt_name": "",
    "old_name": "",
    "official_name": "",
    "railway": "station",
    "user": ""
  },
  {
    "esr": "0391",
    "status": "1",
    "type": "0",
    "osm_id": "393980264",
    "lat": "60.09304047",
    "lon": "29.95849991",
    "name": "Сестрорецк",
    "alt_name": "",
    "old_name": "",
    "official_name": "",
    "railway": "station",
    "user": "039104"
  },
  {
    "esr": "0392",
    "status": "1",
    "type": "0",
    "osm_id": "2012627810",
    "lat": "60.14433289",
    "lon": "30.0136795",
    "name": "Белоостров",
    "alt_name": "",
    "old_name": "",
    "official_name": "",
    "railway": "station",
    "user": ""
  },
  {
    "esr": "0393",
    "status": "1",
    "type": "0",
    "osm_id": "2011157176",
    "lat": "60.20549011",
    "lon": "29.70046616",
    "name": "Зеленогорск",
    "alt_name": "",
    "old_name": "Terijoki",
    "official_name": "",
    "railway": "station",
    "user": ""
  },
  {
    "esr": "0394",
    "status": "1",
    "type": "0",
    "osm_id": "2011157370",
    "lat": "60.24907303",
    "lon": "29.57427406",
    "name": "Рощино",
    "alt_name": "",
    "old_name": "",
    "official_name": "",
    "railway": "station",
    "user": ""
  },
  {
    "esr": "0396",
    "status": "1",
    "type": "0",
    "osm_id": "389877032",
    "lat": "60.35707092",
    "lon": "29.38916397",
    "name": "Каннельярви",
    "alt_name": "",
    "old_name": "",
    "official_name": "",
    "railway": "station",
    "user": ""
  },
  {
    "esr": "0396",
    "status": "1",
    "type": "0",
    "osm_id": "1854937987",
    "lat": "60.40974808",
    "lon": "29.35229301",
    "name": "Заходское",
    "alt_name": "",
    "old_name": "Lounatjoki",
    "official_name": "",
    "railway": "station",
    "user": "039617"
  },
  {
    "esr": "0397",
    "status": "1",
    "type": "0",
    "osm_id": "357208840",
    "lat": "60.17261887",
    "lon": "29.43050194",
    "name": "Приветненское",
    "alt_name": "",
    "old_name": "Ino",
    "official_name": "",
    "railway": "station",
    "user": "039706"
  },
  {
    "esr": "0398",
    "status": "1",
    "type": "0",
    "osm_id": "356057573",
    "lat": "60.33763123",
    "lon": "28.98299408",
    "name": "Куолемаярви",
    "alt_name": "",
    "old_name": "",
    "official_name": "",
    "railway": "station",
    "user": ""
  },
  {
    "esr": "0400",
    "status": "1",
    "type": "0",
    "osm_id": "233116573",
    "lat": "59.92121124",
    "lon": "32.30067825",
    "name": "Волховстрой-1",
    "alt_name": "",
    "old_name": "",
    "official_name": "",
    "railway": "station",
    "user": "040008"
  },
  {
    "esr": "0400",
    "status": "1",
    "type": "0",
    "osm_id": "506822528",
    "lat": "59.90451813",
    "lon": "32.10191727",
    "name": "Пупышево",
    "alt_name": "",
    "old_name": "",
    "official_name": "",
    "railway": "station",
    "user": ""
  },
  {
    "esr": "0401",
    "status": "1",
    "type": "0",
    "osm_id": "3867997198",
    "lat": "58.52663422",
    "lon": "31.25011253",
    "name": "Новгород-на-Волхове",
    "alt_name": "Великий Новгород",
    "old_name": "",
    "official_name": "",
    "railway": "station",
    "user": ""
  },
  {
    "esr": "0401",
    "status": "2",
    "type": "0",
    "osm_id": "332945959",
    "lat": "58.54805374",
    "lon": "31.2575531",
    "name": "Новгород-депо",
    "alt_name": "",
    "old_name": "",
    "official_name": "",
    "railway": "station",
    "user": ""
  },
  {
    "esr": "0401",
    "status": "1",
    "type": "0",
    "osm_id": "21683581",
    "lat": "58.55213165",
    "lon": "31.23310661",
    "name": "Новгород-Лужский",
    "alt_name": "",
    "old_name": "",
    "official_name": "",
    "railway": "station",
    "user": ""
  },
  {
    "esr": "0402",
    "status": "1",
    "type": "0",
    "osm_id": "268104951",
    "lat": "58.61542892",
    "lon": "31.21149445",
    "name": "Вяжище",
    "alt_name": "",
    "old_name": "",
    "official_name": "",
    "railway": "station",
    "user": ""
  },
  {
    "esr": "0402",
    "status": "1",
    "type": "0",
    "osm_id": "268842129",
    "lat": "58.71294403",
    "lon": "31.15443611",
    "name": "Татино",
    "alt_name": "",
    "old_name": "",
    "official_name": "",
    "railway": "station",
    "user": ""
  },
  {
    "esr": "0405",
    "status": "1",
    "type": "0",
    "osm_id": "295535601",
    "lat": "58.62815857",
    "lon": "30.42829323",
    "name": "Радом",
    "alt_name": "",
    "old_name": "",
    "official_name": "",
    "railway": "station",
    "user": ""
  },
  {
    "esr": "0405",
    "status": "1",
    "type": "0",
    "osm_id": "293058034",
    "lat": "58.62226486",
    "lon": "30.62491417",
    "name": "Мойка",
    "alt_name": "",
    "old_name": "",
    "official_name": "",
    "railway": "station",
    "user": ""
  },
  {
    "esr": "0406",
    "status": "1",
    "type": "0",
    "osm_id": "1126344843",
    "lat": "58.92833328",
    "lon": "31.50547409",
    "name": "Спасская Полисть",
    "alt_name": "",
    "old_name": "",
    "official_name": "",
    "railway": "station",
    "user": ""
  },
  {
    "esr": "0407",
    "status": "1",
    "type": "0",
    "osm_id": "1126344830",
    "lat": "58.70118332",
    "lon": "31.36300659",
    "name": "Подберезье",
    "alt_name": "",
    "old_name": "",
    "official_name": "",
    "railway": "station",
    "user": ""
  },
  {
    "esr": "0407",
    "status": "2",
    "type": "0",
    "osm_id": "332945959",
    "lat": "58.54805374",
    "lon": "31.2575531",
    "name": "Новгород-депо",
    "alt_name": "",
    "old_name": "",
    "official_name": "",
    "railway": "station",
    "user": ""
  },
  {
    "esr": "0409",
    "status": "1",
    "type": "0",
    "osm_id": "1029919310",
    "lat": "58.94926453",
    "lon": "31.07217598",
    "name": "Рогавка",
    "alt_name": "",
    "old_name": "",
    "official_name": "",
    "railway": "station",
    "user": ""
  },
  {
    "esr": "0410",
    "status": "1",
    "type": "0",
    "osm_id": "428893960",
    "lat": "59.14543152",
    "lon": "30.87122536",
    "name": "Радофинниково",
    "alt_name": "",
    "old_name": "",
    "official_name": "",
    "railway": "station",
    "user": ""
  },
  {
    "esr": "0410",
    "status": "1",
    "type": "0",
    "osm_id": "1864631823",
    "lat": "59.33189011",
    "lon": "30.72572136",
    "name": "Кастенская",
    "alt_name": "",
    "old_name": "",
    "official_name": "",
    "railway": "station",
    "user": ""
  },
  {
    "esr": "0410",
    "status": "1",
    "type": "0",
    "osm_id": "27024968",
    "lat": "59.42595673",
    "lon": "30.64808846",
    "name": "Лустовка",
    "alt_name": "",
    "old_name": "",
    "official_name": "",
    "railway": "station",
    "user": ""
  },
  {
    "esr": "0411",
    "status": "1",
    "type": "0",
    "osm_id": "2004992220",
    "lat": "58.48420715",
    "lon": "33.07516098",
    "name": "Боровёнка",
    "alt_name": "",
    "old_name": "",
    "official_name": "",
    "railway": "station",
    "user": "041104"
  },
  {
    "esr": "0412",
    "status": "1",
    "type": "0",
    "osm_id": "2004992252",
    "lat": "58.58189774",
    "lon": "32.88058472",
    "name": "Торбино",
    "alt_name": "",
    "old_name": "",
    "official_name": "",
    "railway": "station",
    "user": "041208"
  },
  {
    "esr": "0414",
    "status": "1",
    "type": "0",
    "osm_id": "741598831",
    "lat": "58.68982697",
    "lon": "32.57420349",
    "name": "Мстинский Мост",
    "alt_name": "",
    "old_name": "",
    "official_name": "",
    "railway": "station",
    "user": "041418"
  },
  {
    "esr": "0416",
    "status": "1",
    "type": "0",
    "osm_id": "683286296",
    "lat": "58.84637451",
    "lon": "32.22164154",
    "name": "Малая Вишера",
    "alt_name": "",
    "old_name": "",
    "official_name": "",
    "railway": "station",
    "user": "041602"
  },
  {
    "esr": "0417",
    "status": "1",
    "type": "0",
    "osm_id": "741598835",
    "lat": "58.90876007",
    "lon": "32.0927887",
    "name": "Большая Вишера",
    "alt_name": "",
    "old_name": "",
    "official_name": "",
    "railway": "station",
    "user": "041706"
  },
  {
    "esr": "0418",
    "status": "1",
    "type": "0",
    "osm_id": "286133540",
    "lat": "58.97211075",
    "lon": "31.96120071",
    "name": "Гряды",
    "alt_name": "",
    "old_name": "",
    "official_name": "",
    "railway": "station",
    "user": "041852"
  },
  {
    "esr": "0420",
    "status": "1",
    "type": "0",
    "osm_id": "5679563996",
    "lat": "59.12264633",
    "lon": "31.67928696",
    "name": "Чудово-Московское",
    "alt_name": "",
    "old_name": "",
    "official_name": "",
    "railway": "station",
    "user": "042003"
  },
  {
    "esr": "0420",
    "status": "1",
    "type": "0",
    "osm_id": "1126344846",
    "lat": "59.11423492",
    "lon": "31.64522362",
    "name": "Чудово-Новгородское",
    "alt_name": "Чудово II",
    "old_name": "",
    "official_name": "",
    "railway": "station",
    "user": ""
  },
  {
    "esr": "0420",
    "status": "1",
    "type": "0",
    "osm_id": "1841069204",
    "lat": "59.16456985",
    "lon": "31.66699982",
    "name": "Чудово-Кировское",
    "alt_name": "",
    "old_name": "",
    "official_name": "",
    "railway": "station",
    "user": ""
  },
  {
    "esr": "0420",
    "status": "1",
    "type": "0",
    "osm_id": "1841069214",
    "lat": "59.35691071",
    "lon": "31.81411362",
    "name": "Тигода",
    "alt_name": "",
    "old_name": "",
    "official_name": "",
    "railway": "station",
    "user": ""
  },
  {
    "esr": "0421",
    "status": "1",
    "type": "0",
    "osm_id": "1841046790",
    "lat": "59.45331192",
    "lon": "31.90164566",
    "name": "Ирса",
    "alt_name": "",
    "old_name": "",
    "official_name": "",
    "railway": "station",
    "user": ""
  },
  {
    "esr": "0422",
    "status": "1",
    "type": "0",
    "osm_id": "2004992256",
    "lat": "59.17825699",
    "lon": "31.5758152",
    "name": "Торфяное",
    "alt_name": "",
    "old_name": "",
    "official_name": "",
    "railway": "station",
    "user": "042200"
  },
  {
    "esr": "0424",
    "status": "1",
    "type": "0",
    "osm_id": "5673073318",
    "lat": "59.35133743",
    "lon": "31.25045395",
    "name": "Любань",
    "alt_name": "",
    "old_name": "",
    "official_name": "",
    "railway": "station",
    "user": "042408"
  },
  {
    "esr": "0425",
    "status": "1",
    "type": "0",
    "osm_id": "2011157385",
    "lat": "59.41677856",
    "lon": "31.12616158",
    "name": "Рябово",
    "alt_name": "",
    "old_name": "",
    "official_name": "",
    "railway": "station",
    "user": "042501"
  },
  {
    "esr": "0426",
    "status": "1",
    "type": "0",
    "osm_id": "348670782",
    "lat": "58.36994553",
    "lon": "36.73096085",
    "name": "Топорово",
    "alt_name": "",
    "old_name": "",
    "official_name": "",
    "railway": "station",
    "user": ""
  },
  {
    "esr": "0427",
    "status": "1",
    "type": "0",
    "osm_id": "1386036189",
    "lat": "58.39645004",
    "lon": "36.6271019",
    "name": "Дынино",
    "alt_name": "",
    "old_name": "",
    "official_name": "",
    "railway": "station",
    "user": ""
  },
  {
    "esr": "0428",
    "status": "1",
    "type": "0",
    "osm_id": "966145286",
    "lat": "58.46224976",
    "lon": "36.4044075",
    "name": "Сандово",
    "alt_name": "",
    "old_name": "",
    "official_name": "",
    "railway": "station",
    "user": ""
  },
  {
    "esr": "0428",
    "status": "1",
    "type": "0",
    "osm_id": "1278079413",
    "lat": "58.5427475",
    "lon": "36.10344696",
    "name": "Приданиха",
    "alt_name": "",
    "old_name": "",
    "official_name": "",
    "railway": "station",
    "user": ""
  },
  {
    "esr": "0429",
    "status": "1",
    "type": "0",
    "osm_id": "313444054",
    "lat": "58.60128784",
    "lon": "35.80675888",
    "name": "Пестово",
    "alt_name": "",
    "old_name": "",
    "official_name": "",
    "railway": "station",
    "user": ""
  },
  {
    "esr": "0430",
    "status": "1",
    "type": "0",
    "osm_id": "3755431010",
    "lat": "58.7106781",
    "lon": "35.43368149",
    "name": "Абросово",
    "alt_name": "",
    "old_name": "",
    "official_name": "",
    "railway": "station",
    "user": ""
  },
  {
    "esr": "0431",
    "status": "1",
    "type": "0",
    "osm_id": "3755434025",
    "lat": "58.75955582",
    "lon": "35.2501564",
    "name": "Бугры",
    "alt_name": "",
    "old_name": "",
    "official_name": "",
    "railway": "station",
    "user": ""
  },
  {
    "esr": "0432",
    "status": "1",
    "type": "0",
    "osm_id": "1421212570",
    "lat": "58.8045578",
    "lon": "35.03006744",
    "name": "Кабожа",
    "alt_name": "",
    "old_name": "",
    "official_name": "",
    "railway": "station",
    "user": ""
  },
  {
    "esr": "0435",
    "status": "1",
    "type": "0",
    "osm_id": "1478207190",
    "lat": "59.15749741",
    "lon": "35.31044388",
    "name": "Чагода",
    "alt_name": "Леспромхоз",
    "old_name": "Белый Бык",
    "official_name": "",
    "railway": "station",
    "user": ""
  },
  {
    "esr": "0435",
    "status": "1",
    "type": "0",
    "osm_id": "353105731",
    "lat": "59.32849121",
    "lon": "35.1652832",
    "name": "Тургошь",
    "alt_name": "",
    "old_name": "",
    "official_name": "",
    "railway": "station",
    "user": "043519"
  },
  {
    "esr": "0436",
    "status": "1",
    "type": "0",
    "osm_id": "2012534823",
    "lat": "59.09297562",
    "lon": "35.2063179",
    "name": "Огарево",
    "alt_name": "",
    "old_name": "",
    "official_name": "",
    "railway": "station",
    "user": "043608"
  },
  {
    "esr": "0438",
    "status": "1",
    "type": "0",
    "osm_id": "3755429089",
    "lat": "58.86823654",
    "lon": "34.66445923",
    "name": "Кушавера",
    "alt_name": "",
    "old_name": "",
    "official_name": "",
    "railway": "station",
    "user": ""
  },
  {
    "esr": "0439",
    "status": "1",
    "type": "0",
    "osm_id": "311807350",
    "lat": "58.89294434",
    "lon": "34.50370026",
    "name": "Хвойная",
    "alt_name": "",
    "old_name": "",
    "official_name": "",
    "railway": "station",
    "user": ""
  },
  {
    "esr": "0440",
    "status": "1",
    "type": "0",
    "osm_id": "3749310023",
    "lat": "58.91165543",
    "lon": "34.33768463",
    "name": "Песь",
    "alt_name": "",
    "old_name": "",
    "official_name": "",
    "railway": "station",
    "user": ""
  },
  {
    "esr": "0441",
    "status": "1",
    "type": "0",
    "osm_id": "5023006264",
    "lat": "58.9537468",
    "lon": "34.08065033",
    "name": "Соминка",
    "alt_name": "",
    "old_name": "",
    "official_name": "",
    "railway": "station",
    "user": ""
  },
  {
    "esr": "0441",
    "status": "1",
    "type": "0",
    "osm_id": "3749309649",
    "lat": "58.9539566",
    "lon": "34.08080673",
    "name": "Соминка",
    "alt_name": "",
    "old_name": "",
    "official_name": "",
    "railway": "station",
    "user": ""
  },
  {
    "esr": "0442",
    "status": "1",
    "type": "0",
    "osm_id": "1690272202",
    "lat": "58.9596405",
    "lon": "33.99299622",
    "name": "Анциферово-Мологское",
    "alt_name": "",
    "old_name": "",
    "official_name": "",
    "railway": "station",
    "user": ""
  },
  {
    "esr": "0443",
    "status": "1",
    "type": "0",
    "osm_id": "3749309552",
    "lat": "58.98936844",
    "lon": "33.82010269",
    "name": "Киприя",
    "alt_name": "",
    "old_name": "",
    "official_name": "",
    "railway": "station",
    "user": ""
  },
  {
    "esr": "0445",
    "status": "1",
    "type": "0",
    "osm_id": "2508819597",
    "lat": "59.12195206",
    "lon": "33.34258652",
    "name": "Неболчи",
    "alt_name": "",
    "old_name": "",
    "official_name": "",
    "railway": "station",
    "user": ""
  },
  {
    "esr": "0446",
    "status": "1",
    "type": "0",
    "osm_id": "614588267",
    "lat": "59.15174103",
    "lon": "33.12143326",
    "name": "Хотцы",
    "alt_name": "",
    "old_name": "",
    "official_name": "",
    "railway": "station",
    "user": "044600"
  },
  {
    "esr": "0447",
    "status": "1",
    "type": "0",
    "osm_id": "423186359",
    "lat": "59.17247391",
    "lon": "33.00979614",
    "name": "Водогон",
    "alt_name": "",
    "old_name": "",
    "official_name": "",
    "railway": "station",
    "user": "044704"
  },
  {
    "esr": "0448",
    "status": "1",
    "type": "0",
    "osm_id": "470408459",
    "lat": "59.1941452",
    "lon": "32.89248276",
    "name": "Тальцы-Мологские",
    "alt_name": "",
    "old_name": "",
    "official_name": "",
    "railway": "station",
    "user": ""
  },
  {
    "esr": "0449",
    "status": "2",
    "type": "0",
    "osm_id": "5532820444",
    "lat": "60.99104691",
    "lon": "29.09818649",
    "name": "5 км",
    "alt_name": "",
    "old_name": "",
    "official_name": "",
    "railway": "station",
    "user": ""
  },
  {
    "esr": "0450",
    "status": "1",
    "type": "0",
    "osm_id": "423154063",
    "lat": "59.28422165",
    "lon": "32.44265747",
    "name": "Будогощь",
    "alt_name": "",
    "old_name": "",
    "official_name": "",
    "railway": "station",
    "user": ""
  },
  {
    "esr": "0451",
    "status": "1",
    "type": "0",
    "osm_id": "423154061",
    "lat": "59.35702515",
    "lon": "32.32962036",
    "name": "Пчёвжа",
    "alt_name": "",
    "old_name": "",
    "official_name": "",
    "railway": "station",
    "user": ""
  },
  {
    "esr": "0452",
    "status": "1",
    "type": "0",
    "osm_id": "423154058",
    "lat": "59.45737076",
    "lon": "32.02738953",
    "name": "Кириши",
    "alt_name": "",
    "old_name": "",
    "official_name": "",
    "railway": "station",
    "user": ""
  },
  {
    "esr": "0452",
    "status": "1",
    "type": "0",
    "osm_id": "2014628968",
    "lat": "59.47234344",
    "lon": "31.8960228",
    "name": "Посадниково",
    "alt_name": "",
    "old_name": "",
    "official_name": "",
    "railway": "station",
    "user": ""
  },
  {
    "esr": "0452",
    "status": "1",
    "type": "0",
    "osm_id": "423154046",
    "lat": "59.56352997",
    "lon": "31.6561451",
    "name": "Жарок",
    "alt_name": "",
    "old_name": "",
    "official_name": "",
    "railway": "station",
    "user": ""
  },
  {
    "esr": "0453",
    "status": "1",
    "type": "0",
    "osm_id": "1628692294",
    "lat": "59.46050644",
    "lon": "32.06450272",
    "name": "Кириши-Заводская",
    "alt_name": "",
    "old_name": "",
    "official_name": "",
    "railway": "station",
    "user": ""
  },
  {
    "esr": "0454",
    "status": "1",
    "type": "0",
    "osm_id": "577332885",
    "lat": "59.74684906",
    "lon": "32.23299026",
    "name": "Теребочево",
    "alt_name": "",
    "old_name": "",
    "official_name": "",
    "railway": "station",
    "user": ""
  },
  {
    "esr": "0454",
    "status": "1",
    "type": "0",
    "osm_id": "577332890",
    "lat": "59.87643814",
    "lon": "32.31867981",
    "name": "Пороги",
    "alt_name": "",
    "old_name": "",
    "official_name": "",
    "railway": "station",
    "user": ""
  },
  {
    "esr": "0454",
    "status": "1",
    "type": "0",
    "osm_id": "577332875",
    "lat": "59.82478333",
    "lon": "32.3578949",
    "name": "Гостинополье",
    "alt_name": "",
    "old_name": "",
    "official_name": "",
    "railway": "station",
    "user": ""
  },
  {
    "esr": "0455",
    "status": "1",
    "type": "0",
    "osm_id": "797202927",
    "lat": "59.65576172",
    "lon": "32.10598373",
    "name": "Глажево",
    "alt_name": "",
    "old_name": "",
    "official_name": "",
    "railway": "station",
    "user": ""
  },
  {
    "esr": "0456",
    "status": "1",
    "type": "0",
    "osm_id": "1548453597",
    "lat": "59.55321503",
    "lon": "32.0387764",
    "name": "Андреево",
    "alt_name": "",
    "old_name": "",
    "official_name": "",
    "railway": "station",
    "user": ""
  },